$GPGSV,1,1,00*79
$GPRMC,235945.036,V,,,,,0.00,0.00,050180,,,N*48
$GPGSV,1,1,01,28,,,45*73
$GPGSV,1,1,01,28,,,45*73
$GPRMC,235947.036,V,,,,,0.00,0.00,050180,,,N*4A
$GPGSV,1,1,01,28,,,46*70
$GPRMC,235948.036,V,,,,,0.00,0.00,050180,,,N*45
$GPGSV,1,1,01,28,,,45*73
$GPGSV,1,1,01,28,,,45*73
$GPRMC,235950.036,V,,,,,0.00,0.00,050180,,,N*4C
$GPGSV,1,1,02,11,,,41,28,,,45*75
$GPRMC,235951.036,V,,,,,0.00,0.00,050180,,,N*4D
$GPGSV,1,1,02,11,,,40,28,,,45*74
$GPRMC,235952.037,V,,,,,0.00,0.00,050180,,,N*4F
$GPGSV,1,1,03,11,,,41,28,,,45,19,,,35*7A
$GPRMC,235953.037,V,,,,,0.00,0.00,050180,,,N*4E
$GPGSV,1,1,03,11,,,40,28,,,45,19,,,36*78
$GPRMC,235954.037,V,,,,,0.00,0.00,050180,,,N*49
$GPGSV,1,1,03,11,,,41,28,,,45,19,,,37*78
$GPRMC,235955.037,V,,,,,0.00,0.00,050180,,,N*48
$GPGSV,1,1,03,11,,,41,28,,,45,19,,,37*78
$GPRMC,235956.037,V,,,,,0.00,0.00,050180,,,N*4B
$GPGSV,1,1,03,11,,,41,28,,,45,19,,,36*79
$GPRMC,235957.037,V,,,,,0.00,0.00,050180,,,N*4A
$GPGSV,1,1,03,11,,,41,28,,,45,19,,,36*79
$GPRMC,235958.037,V,,,,,0.00,0.00,050180,,,N*45
$GPGSV,1,1,03,11,,,41,28,,,45,19,,,36*79
$GPRMC,120352.108,V,,,,,0.00,0.00,110180,,,N*4A
$GPGSV,1,1,03,11,,,41,28,,,45,19,,,36*79
$GPRMC,120353.108,V,,,,,0.00,0.00,110180,,,N*4B
$GPGSV,1,1,03,11,,,41,28,,,45,19,,,36*79
$GPRMC,120354.108,V,,,,,0.00,0.00,110180,,,N*4C
$GPGSV,1,1,03,11,,,41,28,,,45,19,,,36*79
$GPRMC,120355.108,V,,,,,0.00,0.00,110180,,,N*4D
$GPGSV,1,1,03,11,,,41,28,,,45,19,,,36*79
$GPRMC,120356.108,V,,,,,0.00,0.00,110180,,,N*4E
$GPGSV,1,1,03,11,,,41,28,,,45,19,,,36*79
$GPRMC,120357.108,V,,,,,0.00,0.00,110180,,,N*4F
$GPRMC,120358.108,V,,,,,0.00,0.00,110180,,,N*40
$GPRMC,120359.108,V,,,,,0.00,0.00,110180,,,N*41
$GPRMC,120400.108,V,,,,,0.00,0.00,110180,,,N*4A
$GPRMC,120401.108,V,,,,,0.00,0.00,110180,,,N*4B
$GPRMC,120402.108,V,,,,,0.00,0.00,301112,,,N*41
$GPRMC,120403.108,V,,,,,0.00,0.00,301112,,,N*40
$GPRMC,120404.108,V,,,,,0.00,0.00,301112,,,N*47
$GPRMC,120407.108,V,,,,,0.00,0.00,301112,,,N*44
$GPRMC,120408.076,V,,,,,0.00,0.00,301112,,,N*43
$GPRMC,120409.076,V,,,,,0.00,0.00,301112,,,N*42
$GPRMC,120410.076,V,,,,,0.00,0.00,301112,,,N*4A
$GPRMC,120412.076,V,,,,,0.00,0.00,301112,,,N*48
$GPRMC,120413.076,V,,,,,0.00,0.00,301112,,,N*49
$GPRMC,120415.076,V,,,,,0.00,0.00,301112,,,N*4F
$GPRMC,120416.076,V,,,,,0.00,0.00,301112,,,N*4C
$GPGSV,2,1,05,11,,,40,28,,,45,19,,,36,01,,,38*77
$GPGSV,2,2,05,03,,,28*75
$GPGSV,2,1,05,11,,,40,28,,,45,19,,,36,01,,,38*77
$GPGSV,2,2,05,03,,,31*7D
$GPRMC,120418.076,V,,,,,0.00,0.00,301112,,,N*42
$GPGSV,2,1,05,11,,,40,28,,,45,19,,,36,01,,,38*77
$GPGSV,2,2,05,03,,,30*7C
$GPRMC,120419.076,V,,,,,0.00,0.00,301112,,,N*43
$GPGSV,2,1,05,11,,,40,28,,,45,19,,,36,01,,,38*77
$GPGSV,2,2,05,03,,,31*7D
$GPRMC,120420.081,V,,,,,0.07,0.00,301112,,,N*46
$GPGSV,2,1,06,19,62,177,36,11,58,269,39,28,25,317,45,24,07,033,*76
$GPGSV,2,2,06,01,,,38,03,,,29*7D
$GPRMC,120421.081,V,,,,,0.05,0.00,301112,,,N*45
$GPGSV,2,1,06,19,62,177,36,11,58,269,39,28,25,317,44,24,07,033,*77
$GPGSV,2,2,06,01,,,38,03,,,30*75
$GPRMC,120423.000,V,,,,,0.12,0.00,301112,,,N*48
$GPGSV,2,1,06,19,62,177,36,11,58,269,39,28,25,317,44,24,07,033,*77
$GPGSV,2,2,06,01,,,38,03,,,30*75
$GPGSV,2,1,06,19,62,177,36,11,58,269,39,28,25,317,44,24,07,033,*77
$GPGSV,2,2,06,01,,,38,03,,,30*75
$GPRMC,120425.000,V,,,,,0.03,0.00,301112,,,N*4E
$GPGSV,2,1,06,19,62,177,36,11,58,269,39,28,25,317,44,24,07,033,*77
$GPGSV,2,2,06,01,,,38,03,,,30*75
$GPRMC,120426.000,V,,,,,0.07,0.00,301112,,,N*49
$GPGSV,2,1,06,19,62,177,36,11,58,269,39,28,25,317,44,24,07,033,*77
$GPGSV,2,2,06,01,,,38,03,,,30*75
$GPRMC,120427.000,V,,,,,0.05,0.00,301112,,,N*4A
$GPGSV,2,1,06,19,62,177,36,11,58,269,38,28,25,317,44,24,07,033,*76
$GPGSV,2,2,06,01,,,38,03,,,30*75
$GPRMC,120428.000,V,,,,,0.08,0.00,301112,,,N*48
$GPGSV,2,1,06,19,62,177,36,11,58,269,38,28,25,317,44,24,07,033,*76
$GPGSV,2,2,06,01,,,38,03,,,31*74
$GPGSV,2,1,06,19,62,177,36,11,58,269,38,28,25,317,44,24,07,033,*76
$GPRMC,120430.000,V,,,,,0.02,0.00,301112,,,N*4B
$GPGSV,2,1,06,19,62,177,36,11,58,269,38,28,25,317,44,24,07,033,*76
$GPGSV,2,2,06,01,,,38,03,,,31*74
$GPRMC,120431.000,V,,,,,0.05,0.00,301112,,,N*4D
$GPGSV,2,1,06,19,62,177,36,11,58,269,37,28,25,317,44,24,07,033,*79
$GPGSV,2,2,06,01,,,38,03,,,31*74
$GPRMC,120432.000,V,,,,,0.01,0.00,301112,,,N*4A
$GPGGA,120433.000,5700.9044,N,00959.1794,E,1,4,2.90,104.7,M,42.5,M,,*50
$GPGSA,A,3,11,28,19,01,,,,,,,,,3.90,0.99*0E
$GPGSV,2,1,06,19,62,177,36,11,58,269,37,01,40,271,38,28,25,317,44*72
$GPGSV,2,2,06,24,07,033,,03,,,31*4F
$GPRMC,120433.000,A,5700.9044,N,00959.1794,E,0.49,0.00,301112,,,A*61
$GPGSA,A,3,11,28,19,01,,,,,,,,,3.07,2.90,0.99*0E
$GPGSV,2,1,06,19,62,177,36,11,58,269,37,01,40,271,38,28,25,317,44*72
$GPGSV,2,2,06,24,07,033,,03,,,31
$GPRMC,120434.000,A,5700.9025,N,00959.1732,E,0.54,0.00,301112,,,A*61
$GPGGA,120435.000,5700.9011,N,00959.1688,E,1,4,2.90,102.7,M,42.5,M,,*5C
$GPGSA,A,3,11,28,19,01,,,,,,,,,3.07,2.90,0.99*0E
$GPGSV,2,1,06,19,62,177,36,11,58,269,37,01,40,271,38,28,25,317,44*72
$GPGSV,2,2,06,24,07,033,,03,,,30*4E
$GPRMC,120435.000,A,5700.9011,N,00959.1688,E,0.68,248.88,301112,,,A*66
$GPGGA,120436.000,5700.9001,N,00959.1659,E,1,4,2.91,102.0,M,42.5,M,,*54
$GPGSA,A,3,11,28,19,01,,,,,,,,,3.07,2.91,0.99*0F
$GPGSV,2,2,06,24,07,033,,03,,,30*4E
$GPRMC,120436.000,A,5700.9001,N,00959.1659,E,0.52,248.88,301112,,,A*61
$GPGSA,A,3,11,28,19,01,,,,,,,,,3.07,2.91,0.99*0F
$GPGSV,2,2,06,24,07,033,,03,,,3
$GPRMC,120437.000,A,5700.8994,N,00959.1638,E,0.37,248.88,301112,,,A*60
$GPGGA,120438.000,5700.8987,N,00959.1621,E,1,4,2.91,100.9,M,42.5,M,,*58
$GPGSA,A,3,11,28,19,01,,,,,,,,,3.07,2.91,0.99*0F
$GPGSV,2,2,06,24,07,033,,03,,,30*4E
$GPRMC,120438.000,A,5700.8987,N,00959.1621,E,0.42,248.88,301112,,,A*67
$GPGGA,120439.000,5700.8982,N,00959.1607,E,1,4,2.91,100.4,M,42.5,M,,*55
$GPGSA,A,3,11,28,19,01,,,,,,,,,3.07,2.91,0.99*0F
$GPGSV,2,2,06,24,07,033,,03,,,30*4E
$GPRMC,120439.000,A,5700.8982,N,00959.1607,E,0.45,248.88,301112,,,A*60
$GPGSA,A,3,11,28,19,01,,,,,,,,,3.07,2.91,0.99*0F
$GPGSV,2,1,06,19,62,177,36,11,58,269,36,01,40,271,37,28,25,317,44*7C
$GPGSV,2,2,06,24,07,033,,03,,,30*4E
$GPRMC,120440.000,A,5700.8978,N,00959.1599,E,0.36,248.88,301112,,,A*6B
$GPGSA,A,3,11,28,19,01,,,,,,,,,3.07,2.91,0.99*0F
$GPGSV,2,1,06,19,62,177,36,11,58,269,36,01,40,271,37,28,25,317,44*7C
$GPGSV,2,2,06,24,07,033,,03,,,29*46
$GPRMC,120441.000,A,5700.8974,N,00959.1591,E,0.27,248.88,301112,,,A*6E
$GPGGA,120442.000,5700.8969,N,00959.1581,E,1,4,2.91,99.3,M,42.5,M,,*67
$GPGSA,A,3,11,28,19,01,,,,,,,,,3.08,2.91,0.99*00
$GPGSV,2,1,06,19,62,177,36,11,58,269,35,01,40,271,37,28,25,317,44*7F
$GPGSV,2,2,06,24,07,033,,03,,,29*46
$GPRMC,120442.000,A,5700.8969,N,00959.1581,E,0.20,248.88,301112,,,A*67
$GPGGA,120443.000,5700.8965,N,00959.1573,E,1,4,2.91,99.0,M,42.5,M,,*64
$GPGSA,A,3,11,28,19,01,,,,,,,,,3.08,2.91,0.99*00
$GPGSV,2,1,06,19,62,177,36,11,58,269,35,01,40,271,37,28,25,317,44*7F
$GPGSV,2,2,06,24,07,033,,03,,,29
$GPRMC,120443.000,A,5700.8965,N,00959.1573,E,0.25,248.88,301112,,,A*62
$GPGGA,120444.000,5700.8960,N,00959.1563,E,1,4,2.91,98.7,M,42.5,M,,*61
$GPGSA,A,3,11,28,19,01,,,,,,,,,3.91,0.99*00
$GPGSV,2,1,06,19,62,177,36,11,58,269,34,01,40,271,37,28,25,317,44*7E
$GPGSV,2,2,06,24,07,033,,03,,,29*46
$GPRMC,120444.000,A,5700.8960,N,00959.1563,E,0.32,248.88,301112,,,A*67
$GPGSA,A,3,11,28,19,01,,,,,,,,,3.08,2.91,0.99*00
$GPGSV,2,1,06,19,62,177,36,11,58,269,34,01,40,271,37,28,25,317,44*7E
$GPGSV,2,2,06,24,07,033,,03,,,29*46
$GPGGA,120446.000,5700.8953,N,00959.1550,E,1,4,2.92,98.2,M,42.5,M,,*65
$GPGSA,A,3,11,28,19,01,,,,,,,,,3.08,2.92,0.99*03
$GPGSV,2,1,06,19,62,177,36,11,58,269,34,01,40,271,37,28,25,317,44*7E
$GPGSV,2,2,06,24,07,033,,03,,,29*46
$GPGGA,120447.000,5700.8951,N,00959.1546,E,1,4,2.92,97.9,M,42.5,M,,*65
$GPGSA,A,3,11,28,19,01,,,,,,,,,3.08,2.92,0.99*03
$GPGSV,2,1,06,19,62,177,36,11,58,269,34,01,40,271,37,28,25,317,44*7E
$GPGSV,2,2,06,24,07,032,,03,,,29
$GPRMC,120447.000,A,5700.8951,N,00959.1546,E,0.07,248.88,301112,,,A*67
$GPGGA,120448.000,5700.8949,N,00959.1541,E,1,4,2.92,97.8,M,42.5,M,,*65
$GPGSA,A,3,11,28,19,01,,,,,,,,,3.08,2.92,0.99*03
$GPGSV,2,1,06,19,62,177,36,11,58,269,34,01,40,271,37,28,25,317,44*7E
$GPGSV,2,2,06,24,07,032,,03,,,29*47
$GPRMC,120448.000,A,5700.8949,N,00959.1541,E,0.06,248.88,301112,,,A*67
$GPGGA,120449.000,5700.8947,N,00959.1539,E,1,4,2.92,97.6,M,42.5,M,,*6B
$GPGSA,A,3,11,28,19,01,,,,,,,,,3.08,2.92,0.99*03
$GPGSV,2,1,06,19,62,177,36,11,58,269,34,01,40,271,37,28,25,317,44*7E
$GPGSV,2,2,06,24,07,032,,03,,,29*47
$GPGSA,A,3,11,28,19,01,,,,,,,,,3.08,2.92,0.99*03
$GPGSV,2,1,06,19,62,177,36,11,58,269,34,01,40,271,37,28,25,317,44*7E
$GPGSV,2,2,06,24,07,032,,03,,,29*47
$GPGGA,120451.000,5700.8940,N,00959.1535,E,1,5,2.79,96.4,M,42.5,M,,*6E
$GPGSA,A,3,11,28,19,01,03,,,,,,,,2.94,2.79,0.94*0C
$GPGSV,2,1,06,19,62,177,36,11,58,269,33,01,40,271,37,03,33,168,29*76
$GPGSV,2,2,06,28,25,317,44,24,07,*77
$GPRMC,120451.000,A,5700.8940,N,00959.1535,E,0.21,248.88,301112,,,A*60
$GPGGA,120452.000,5700.8934,N,00959.1536,E,1,5,2.79,95.1,M,42.5,M,,*6B
$GPGSA,A,3,11,28,19,01,03,,,,,,,,2.95,2.79,0.94*0D
$GPGSV,2,1,06,19,62,177,36,11,58,269,33,01,40,271,37,03,33,168,29*76
$GPGSV,2,2,06,28,25,317,44,24,07,032,*77
$GPRMC,120452.000,A,5700.8934,N,00959.1536,E,0.22,248.88,301112,,,A*60
$GPGSA,A,3,11,28,19,01,03,,,,,,,,2.95,2.79,0.94*0D
$GPGSV,2,1,06,19,62,177,36,11,58,269,33,01,40,271,37,03,33,168,29*76
$GPGSV,2,2,06,28,25,317,44,24,07,*77
$GPGGA,120454.000,5700.8923,N,00959.1536,E,1,5,2.79,92.7,M,42.5,M,,*6A
$GPGSV,2,1,06,19,62,177,36,11,58,269,33,01,40,271,37,03,33,168,29*76
$GPGSV,2,2,06,28,25,317,44,24,07,032,*77
$GPGSA,A,3,11,28,19,01,03,,,,,,,,2.95,2.79,0.94*0D
$GPGSV,2,1,06,19,62,177,36,11,58,269,33,01,40,271,37,03,33,168,29*76
$GPGSV,2,2,06,28,25,317,44,24,07,032,*77
$GPRMC,120455.000,A,5700.8915,N,00959.1538,E,0.18,248.88,301112,,,A*63
$GPGGA,120456.000,5700.8908,N,00959.1541,E,1,5,2.80,89.3,M,42.5,M,,*69
$GPGSA,A,3,11,28,19,01,03,,,,,,,,2.95,2.80,0.94*0B
$GPGSV,2,1,06,19,62,177,36,11,58,269,33,01,40,271,37,03,33,168,29*76
$GPGSV,2,2,06,28,25,317,44,24,07,032,*77
$GPRMC,120456.000,A,5700.8908,N,00959.1541,E,0.17,248.88,301112,,,A*6D
$GPGSA,A,3,11,28,19,01,03,,,,,,,,2.95,2.80,0.94*0B
$GPGSV,2,1,06,19,62,177,36,11,58,269,33,01,40,271,37,03,33,168,29*76
$GPGSV,2,2,06,28,25,317,44,24,07,032,*77
$GPRMC,120457.000,A,5700.8903,N,00959.1546,E,0.19,248.88,301112,,,A*6E
$GPGGA,120458.000,5700.8898,N,00959.1550,E,1,5,2.80,86.2,M,42.5,M,,*61
$GPGSA,A,3,11,28,19,01,03,,,,,,,,2.95,2.80,0.94*0B
$GPGSV,2,1,06,19,62,177,36,11,58,269,32,01,40,271,37,03,33,168,29*77
$GPGSV,2,2,06,28,25,317,44,24,07,032,*77
$GPRMC,120458.000,A,5700.8898,N,00959.1550,E,0.36,248.88,301112,,,A*68
$GPGSA,A,3,11,28,19,01,03,,,,,,,,2.95,2.80,0.94*0B
$GPGSV,2,1,06,19,62,177,36,11,58,269,32,01,40,271,37,03,33,168,29*77
$GPGSV,2,2,06,28,25,317,44,24,07,032,*77
$GPRMC,120459.000,A,5700.8894,N,00959.1555,E,0.41,248.88,301112,,,A*60
$GPGGA,120500.000,5700.8891,N,00959.1555,E,1,5,2.80,84.1,M,42.5,M,,*60
$GPGSA,A,3,11,28,19,01,03,,,,,,,,2.95,2.80,0.94*0B
$GPGSV,2,1,06,19,62,177,36,11,58,269,32,01,40,271,37,03,33,168,29*77
$GPGSV,2,2,06,28,25,317,44,24,07,032,*77
$GPRMC,120500.000,A,5700.8891,N,00959.1555,E,0.37,248.88,301112,,,A*69
$GPGGA,120501.000,5700.8889,N,00959.1557,E,1,5,2.80,83.3,M,42.5,M,,*6F
$GPGSA,A,3,11,28,19,01,03,,,,,,,,2.96,2.80,0.94*08
$GPGSV,2,1,06,19,62,177,36,11,58,269,32,01,40,271,37,03,33,168,29*77
$GPGSV,2,2,06,28,25,317,44,24,07,032,*77
$GPRMC,120501.000,A,5700.8889,N,00959.1557,E,0.35,248.88,301112,,,A*61
$GPGGA,120502.000,5700.8887,N,00959.1555,E,1,5,2.80,82.6,M,42.5,M,,*64
$GPGSA,A,3,11,28,19,01,03,,,,,,,,2.96,2.80,0.94*08
$GPGSV,2,1,06,19,62,177,36,11,58,269,32,01,40,271,37,03,33,168,29*77
$GPGSV,2,2,06,28,25,317,44,24,07,032,*77
$GPRMC,120502.000,A,5700.8887,N,00959.1555,E,0.33,248.88,301112,,,A*68
$GPGGA,120503.000,5700.8883,N,00959.1554,E,1,5,2.80,81.6,M,42.5,M,,*63
$GPGSA,A,3,11,28,19,01,03,,,,,,,,2.96,2.80,0.94*08
$GPGSV,2,1,06,19,62,177,36,11,58,269,32,01,40,271,37,03,33,168,29*77
$GPGSV,2,2,06,28,25,317,44,24,07,032,*77
$GPRMC,120503.000,A,5700.8883,N,00959.1554,E,0.27,248.88,301112,,,A*69
$GPGSA,A,3,11,28,19,01,03,,,,,,,,2.96,2.80,0.94*08
$GPGSV,2,1,06,19,62,177,36,11,58,269,32,01,40,271,37,03,33,168,29*77
$GPGSV,2,2,06,28,25,317,44,24,07,032,*77
$GPRMC,120504.000,A,5700.8881,N,00959.1555,E,0.25,248.88,301112,,,A*6F
$GPGGA,120505.000,5700.8878,N,00959.1554,E,1,5,2.80,79.7,M,42.5,M,,*67
$GPGSA,A,3,11,28,19,01,03,,,,,,,,2.96,2.80,0.94*08
$GPGSV,2,1,06,19,62,177,36,11,58,269,32,01,40,271,37,03,33,168,29*77
$GPGSV,2,2,06,28,25,317,44,24,07,032,*77
$GPRMC,120505.000,A,5700.8878,N,00959.1554,E,0.22,248.88,301112,,,A*6E
$GPGGA,120506.000,5700.8876,N,00959.1556,E,1,5,2.81,78.9,M,42.5,M,,*66
$GPGSA,A,3,11,28,19,01,03,,,,,,,,2.96,2.81,0.94*09
$GPGSV,2,1,06,19,62,177,36,11,58,269,32,01,40,271,37,03,33,168,29*77
$GPGSV,2,2,06,28,25,317,44,24,07,032,*77
$GPRMC,120506.000,A,5700.8876,N,00959.1556,E,0.20,248.88,301112,,,A*63
$GPGGA,120507.000,5700.8873,N,00959.1555,E,1,5,2.81,78.0,M,42.5,M,,*68
$GPGSA,A,3,11,28,19,01,03,,,,,,,,2.96,2.81,0.94*09
$GPGSV,2,1,06,19,62,177,36,11,58,269,32,01,40,271,37,03,33,168,29*77
$GPGSV,2,2,06,28,25,317,44,24,07,032,*77
$GPRMC,120507.000,A,5700.8873,N,00959.1555,E,0.20,248.88,301112,,,A*64
$GPGGA,120508.000,5700.8871,N,00959.1554,E,1,5,2.81,77.2,M,42.5,M,,*69
$GPGSA,A,3,11,28,19,01,03,,,,,,,,2.96,2.81,0.94*09
$GPGSV,2,1,06,19,62,177,36,11,58,269,32,01,40,271,37,03,33,168,29*77
$GPGSV,2,2,06,28,25,317,44,24,07,032,*77
$GPRMC,120508.000,A,5700.8871,N,00959.1554,E,0.19,248.88,301112,,,A*62
$GPGGA,120509.000,5700.8869,N,00959.1555,E,1,5,2.81,76.5,M,42.5,M,,*66
$GPGSA,A,3,11,28,19,01,03,,,,,,,,2.96,2.81,0.94*09
$GPGSV,2,1,06,19,62,177,36,11,58,269,32,01,40,271,37,03,33,168,29*77
$GPGSV,2,2,06,28,25,317,44,24,07,032,*77
$GPRMC,120509.000,A,5700.8869,N,00959.1555,E,0.18,248.88,301112,,,A*6A
$GPGGA,120510.000,5700.8868,N,00959.1555,E,1,5,2.81,75.8,M,42.5,M,,*61
$GPGSA,A,3,11,28,19,01,03,,,,,,,,2.96,2.81,0.94*09
$GPGSV,2,1,06,19,62,177,36,11,58,269,32,01,40,271,37,03,33,168,29*77
$GPGSV,2,2,06,28,25,317,44,24,07,032,*77
$GPRMC,120510.000,A,5700.8868,N,00959.1555,E,0.15,248.88,301112,,,A*6E
$GPGGA,120511.000,5700.8867,N,00959.1556,E,1,5,2.81,75.2,M,42.5,M,,*66
$GPGSV,2,1,06,19,62,177,36,11,58,269,32,01,40,271,37,03,33,168,29*77
$GPGSV,2,2,06,28,25,317,44,24,07,032,*77
$GPGGA,120512.000,5700.8865,N,00959.1554,E,1,5,2.81,74.5,M,42.5,M,,*63
$GPGSA,A,3,11,28,19,01,03,,,,,,,,2.97,2.81,0.94*08
$GPGSV,2,1,06,19,62,177,36,11,58,269,32,01,40,271,37,03,33,168,29*77
$GPGSV,2,2,06,28,25,317,44,24,07,032,*77
$GPRMC,120512.000,A,5700.8865,N,00959.1554,E,0.10,248.88,301112,,,A*65
$GPGGA,120513.000,5700.8863,N,00959.1554,E,1,5,2.81,73.8,M,42.5,M,,*6E
$GPGSA,A,3,11,28,19,01,03,,,,,,,,2.97,2.81,0.94*08
$GPGSV,2,1,06,19,62,177,36,11,58,269,33,01,40,271,37,03,33,168,29*76
$GPGSV,2,2,06,28,25,317,44,24,07,032,*77
$GPRMC,120513.000,A,5700.8863,N,00959.1554,E,0.09,248.88,301112,,,A*6A
$GPGGA,120514.000,5700.8862,N,00959.1553,E,1,5,2.81,73.3,M,42.5,M,,*64
$GPGSA,A,3,11,28,19,01,03,,,,,,,,2.97,2.81,0.94*08
$GPGSV,2,1,06,19,62,177,36,11,58,269,33,01,40,271,37,03,33,168,29*76
$GPGSV,2,2,06,28,25,317,44,24,07,032,*77
$GPRMC,120514.000,A,5700.8862,N,00959.1553,E,0.11,248.88,301112,,,A*62
$GPGGA,120515.000,5700.8860,N,00959.1552,E,1,5,2.81,72.6,M,42.5,M,,*62
$GPGSA,A,3,11,28,19,01,03,,,,,,,,2.97,2.81,0.94*08
$GPGSV,2,1,06,19,62,177,36,11,58,269,33,01,40,271,37,03,33,168,29*76
$GPGSV,2,2,06,28,25,317,44,24,07,032,*77
$GPRMC,120515.000,A,5700.8860,N,00959.1552,E,0.12,248.88,301112,,,A*63
$GPGGA,120516.000,5700.8858,N,00959.1550,E,1,5,2.82,72.0,M,42.5,M,,*6D
$GPGSA,A,3,11,28,19,01,03,,,,,,,,2.97,2.82,0.94*0B
$GPGSV,2,1,06,19,62,177,36,11,58,269,33,01,40,271,37,03,33,168,29*76
$GPGSV,2,2,06,28,25,317,44,24,07,*77
$GPGSA,A,3,11,28,19,01,03,,,,,,,,2.97,2.82,0.94*0B
$GPGSV,2,1,06,19,62,177,36,11,58,269,33,01,40,271,37,03,33,168,29*76
$GPGSV,2,2,06,28,25,317,44,24,07,032,*77
$GPRMC,120517.000,A,5700.8857,N,00959.1548,E,0.10,248.88,301112,,,A*6C
$GPGGA,120518.000,5700.8855,N,00959.1546,E,1,5,2.82,70.9,M,42.5,M,,*62
$GPGSA,A,3,11,28,19,01,03,,,,,,,,2.97,2.82,0.94*0B
$GPGSV,2,1,07,19,62,177,36,11,58,269,34,01,40,271,37,03,33,168,29*70
$GPGSV,2,2,07,28,25,317,44,24,07,032,,22,,,25*71
$GPRMC,120518.000,A,5700.8855,N,00959.1546,E,0.08,248.88,301112,,,A*66
$GPGGA,120519.000,5700.8855,N,00959.1547,E,1,5,2.82,70.9,M,42.5,M,,*62
$GPGSA,A,3,11,28,19,01,03,,,,,,,,2.97,2.82,0.94*0B
$GPGSV,2,1,07,19,62,177,36,11,58,269,34,01,40,271,37,03,33,168,29*70
$GPGSV,2,2,07,28,25,317,44,24,07,032,,22,,,29*7D
$GPGGA,120520.000,5700.8855,N,00959.1547,E,1,5,2.82,70.9,M,42.5,M,,*68
$GPGSA,A,3,11,28,19,01,03,,,,,,,,2.97,2.82,0.94*0B
$GPGSV,2,1,07,19,62,177,36,11,58,269,34,01,40,271,37,03,33,168,29*70
$GPGSV,2,2,07,28,25,317,44,24,07,032,,22,,,28*7C
$GPGSA,A,3,11,28,19,01,03,,,,,,,2.82,0.94*0B
$GPGSV,2,1,07,19,62,177,36,11,58,269,34,01,40,271,37,03,33,168,29*70
$GPGSV,2,2,07,28,25,317,44,24,07,032,,22,,,28*7C
$GPRMC,120521.000,A,5700.8855,N,00959.1547,E,0.20,248.88,301112,,,A*67
$GPGGA,120522.000,5700.8854,N,00959.1547,E,1,5,2.82,70.9,M,42.5,M,,*6B
$GPGSA,A,3,11,28,19,01,03,,,,,,,,2.98,2.82,0.94*04
$GPGSV,2,1,07,19,62,177,36,11,58,269,34,01,40,271,37,03,33,168,29*70
$GPGSV,2,2,07,28,25,317,44,24,07,032,,22,,,28*7C
$GPRMC,120522.000,A,5700.8854,N,00959.1547,E,0.30,248.88,301112,,,A*64
$GPGGA,120523.000,5700.8854,N,00959.1546,E,1,5,2.82,70.8,M,42.5,M,,*6A
$GPGSA,A,3,11,28,19,01,03,,,,,,,,2.98,2.82,0.94*04
$GPGSV,2,1,07,19,62,177,36,11,58,269,34,01,40,271,37,03,33,168,29*70
$GPGSV,2,2,07,28,25,317,44,24,07,032,,22,,,28*7C
$GPRMC,120523.000,A,5700.8854,N,00959.1546,E,0.39,248.88,301112,,,A*6D
$GPGGA,120524.000,5700.8853,N,00959.1544,E,1,5,2.82,70.8,M,42.5,M,,*68
$GPGSA,A,3,11,28,19,01,03,,,,,,,,2.98,2.82,0.94*04
$GPGSV,2,1,07,19,62,177,36,11,58,269,34,01,40,271,37,03,33,168,29*70
$GPGSV,2,2,07,28,25,316,44,24,07,032,,22,,,28*7D
$GPRMC,120524.000,A,5700.8853,N,00959.1544,E,0.31,248.88,301112,,,A*67
$GPGGA,120525.000,5700.8853,N,00959.1543,E,1,5,2.83,70.8,M,42.5,M,,*6F
$GPGSA,A,3,11,28,19,01,03,,,,,,,,2.98,2.83,0.94*05
$GPGSV,2,1,07,19,62,177,36,11,58,269,34,01,40,271,37,03,33,168,29*70
$GPGSV,2,2,07,28,25,316,44,24,07,,22,,,28*7D
$GPGGA,120526.000,5700.8852,N,00959.1542,E,1,5,2.83,70.8,M,42.5,M,,*6C
$GPGSA,A,3,11,28,19,01,03,,,,,,,,2.98,2.83,0.94*05
$GPGSV,2,1,07,19,62,177,36,11,58,269,35,01,40,271,37,03,33,168,29*71
$GPGSV,2,2,07,28,25,316,44,24,07,032,,22,,,27*72
$GPRMC,120526.000,A,5700.8852,N,00959.1542,E,0.07,248.88,301112,,,A*67
$GPGSA,A,3,11,28,19,01,03,,,,,,,,2.98,2.83,0.94*05
$GPGSV,2,1,07,19,62,177,36,11,58,269,35,01,40,271,37,03,33,168,29*71
$GPGSV,2,2,07,28,25,316,44,24,07,,22,,,26*73
$GPRMC,120527.000,A,5700.8852,N,00959.1542,E,0.07,248.88,301112,,,A*66
$GPGGA,120528.000,5700.8852,N,00959.1542,E,1,5,2.83,70.8,M,42.5,M,,*62
$GPGSA,A,3,11,28,19,01,03,,,,,,,,2.98,2.83,0.94*05
$GPGSV,2,1,07,19,62,177,36,11,58,269,35,01,40,271,37,03,33,168,29*71
$GPGSV,2,2,07,28,25,316,44,24,07,032,,22,,,26*73
$GPGGA,120529.000,5700.8852,N,00959.1542,E,1,5,2.83,70.8,M,42.5,M,,*63
$GPGSA,A,3,11,28,19,01,03,,,,,,,,2.98,2.83,0.94*05
$GPGSV,2,1,07,19,62,177,36,11,58,269,35,01,40,271,37,03,33,168,29*71
$GPGSV,2,2,07,28,25,316,44,24,07,032,,22,,,25*70
$GPRMC,120529.000,A,5700.8852,N,00959.1542,E,0.04,248.88,301112,,,A*6B
$GPGGA,120530.000,5700.8852,N,00959.1542,E,1,5,2.83,70.8,M,42.5,M,,*6B
$GPGSV,2,1,07,19,62,177,36,11,58,269,35,01,40,271,37,03,33,168,29*71
$GPGSV,2,2,07,28,25,316,44,24,07,032,,22,,,24*71
$GPRMC,120530.000,A,5700.8852,N,00959.1542,E,0.03,248.88,301112,,,A*64
$GPGGA,120531.000,5700.8852,N,00959.1542,E,1,5,2.83,70.7,M,42.5,M,,*65
$GPGSA,A,3,11,28,19,01,03,,,,,,,,2.98,2.83,0.94*05
$GPGSV,2,1,07,19,62,177,36,11,58,269,35,01,40,271,37,03,33,168,29*71
$GPGSV,2,2,07,28,25,316,44,24,07,,22,,,24*71
$GPGGA,120532.000,5700.8852,N,00959.1543,E,1,5,2.83,70.7,M,42.5,M,,*67
$GPGSA,A,3,11,28,19,01,03,,,,,,,,2.99,2.83,0.94*04
$GPGSV,2,1,07,19,62,177,36,11,58,269,35,01,40,271,37,03,33,168,29*71
$GPGSV,2,2,07,28,25,316,44,24,07,032,,22,,,24*71
$GPRMC,120532.000,A,5700.8852,N,00959.1543,E,0.17,248.88,301112,,,A*62
$GPGSV,2,1,07,19,62,177,36,11,58,269,35,01,40,271,37,03,33,168,30*79
$GPGSV,2,2,07,28,25,316,44,24,07,032,,22,,,24*71
$GPGGA,120534.000,5700.8853,N,00959.1544,E,1,5,2.83,70.7,M,42.5,M,,*67
$GPGSA,A,3,11,28,19,01,03,,,,,,,,2.99,2.83,0.94*04
$GPGSV,2,1,07,19,62,177,36,11,58,269,35,01,40,271,37,03,33,168,30*79
$GPGSV,2,2,07,28,25,316,44,24,07,032,,22,,,23*76
$GPRMC,120534.000,A,5700.8853,N,00959.1544,E,0.26,248.88,301112,,,A*60
$GPGGA,120535.000,5700.8853,N,00959.1544,E,1,5,2.84,70.7,M,42.5,M,,*61
$GPGSA,A,3,11,28,19,01,03,,,,,,,,2.99,2.84,0.94*03
$GPGSV,2,1,07,19,62,177,36,11,58,269,36,01,40,271,37,03,33,168,30*7A
$GPGSV,2,2,07,28,25,316,44,24,07,032,,22,,,23*76
$GPRMC,120535.000,A,5700.8853,N,00959.1544,E,0.11,248.88,301112,,,A*65
$GPGGA,120536.000,5700.8853,N,00959.1545,E,1,5,2.84,70.7,M,42.5,M,,*63
$GPGSA,A,3,11,28,19,01,03,,,,,,,,2.99,2.84,0.94*03
$GPGSV,2,1,07,19,62,177,36,11,58,269,36,01,40,271,37,03,33,168,30*7A
$GPGSV,2,2,07,28,25,316,44,24,07,032,,22,,,22*77
$GPRMC,120536.000,A,5700.8853,N,00959.1545,E,0.13,248.88,301112,,,A*65
$GPGGA,120537.000,5700.8853,N,00959.1545,E,1,5,2.84,70.6,M,42.5,M,,*63
$GPGSA,A,3,11,28,19,01,03,,,,,,,,2.99,2.84,0.94*03
$GPGSV,2,1,07,19,62,177,36,11,58,269,36,01,40,271,37,03,33,168,30*7A
$GPGSV,2,2,07,28,25,316,44,24,07,032,,22,,,21*74
$GPRMC,120537.000,A,5700.8853,N,00959.1545,E,0.12,248.88,301112,,,A*65
$GPGGA,120538.000,5700.8853,N,00959.1546,E,1,5,2.84,70.6,M,42.5,M,,*6F
$GPGSA,A,3,11,28,19,01,03,,,,,,,,2.99,2.84,0.94*03
$GPGSV,2,1,07,19,62,177,36,11,58,269,36,01,40,271,37,03,33,168,30*7A
$GPGSV,2,2,07,28,25,316,44,24,07,032,,22,,,20*75
$GPRMC,120538.000,A,5700.8853,N,00959.1546,E,0.13,248.88,301112,,,A*68
$GPGGA,120539.000,5700.8854,N,00959.1546,E,1,5,2.84,70.6,M,42.5,M,,*69
$GPGSA,A,3,11,28,19,01,03,,,,,,,,2.99,2.84,0.94*03
$GPGSV,2,1,07,19,62,177,36,11,58,269,36,01,40,271,37,03,33,168,30*7A
$GPGSV,2,2,07,28,25,316,44,24,07,032,,22,,,20*75
$GPGGA,120540.000,5700.8854,N,00959.1547,E,1,5,2.84,70.6,M,42.5,M,,*66
$GPGSV,2,1,07,19,62,177,36,11,58,269,36,01,40,271,37,03,33,168,30*7A
$GPGSV,2,2,07,28,25,316,44,24,07,032,,22,,,20*75
$GPRMC,120540.000,A,5700.8854,N,00959.1547,E,0.10,248.88,301112,,,A*62
$GPGGA,120541.000,5700.8854,N,00959.1547,E,1,5,2.84,70.6,M,42.5,M,,*67
$GPGSA,A,3,11,28,19,01,03,,,,,,,,3.00,2.84,0.94*02
$GPGSV,2,1,07,19,62,177,36,11,58,269,36,01,40,271,37,03,33,168,30*7A
$GPGSV,2,2,07,28,25,316,44,24,07,032,,22,,,20*75
$GPRMC,120541.000,A,5700.8854,N,00959.1547,E,0.15,248.88,301112,,,A*66
$GPGGA,120542.000,5700.8854,N,00959.1548,E,1,5,2.84,70.6,M,42.5,M,,*6B
$GPGSA,A,3,11,28,19,01,03,,,,,,,,3.00,2.84,0.94*02
$GPGSV,2,1,07,19,62,177,36,11,58,269,36,01,40,271,37,03,33,168,30*7A
$GPGSV,2,2,07,28,25,316,44,24,07,032,,22,,,20*75
$GPRMC,120542.000,A,5700.8854,N,00959.1548,E,0.25,248.88,301112,,,A*69
$GPGGA,120543.000,5700.8854,N,00959.1549,E,1,5,2.84,70.6,M,42.5,M,,*6B
$GPGSA,A,3,11,28,19,01,03,,,,,,,,3.00,2.84,0.94*02
$GPGSV,2,1,07,19,62,177,36,11,58,269,36,01,40,271,38,03,33,168,31*74
$GPGSV,2,2,07,28,25,316,44,24,07,032,,22,,,20*75
$GPRMC,120543.000,A,5700.8854,N,00959.1549,E,0.28,248.88,301112,,,A*64
$GPGGA,120544.000,5700.8854,N,00959.1551,E,1,5,2.85,70.5,M,42.5,M,,*67
$GPGSA,A,3,11,28,19,01,03,,,,,,,,3.00,2.85,0.94*03
$GPGSV,2,1,07,19,62,177,36,11,58,269,36,01,40,271,38,03,33,168,31*74
$GPGSV,2,2,07,28,25,316,44,24,07,032,,22,,,20*75
$GPRMC,120544.000,A,5700.8854,N,00959.1551,E,0.20,248.88,301112,,,A*62
$GPGSA,A,3,11,28,19,01,03,,,,,,,,3.00,2.85,0.94*03
$GPGSV,2,1,07,19,62,177,36,11,58,269,36,01,40,271,38,03,33,168,31*74
$GPGSV,2,2,07,28,25,316,44,24,07,032,,22,,,20*75
$GPRMC,120545.000,A,5700.8854,N,00959.1552,E,0.18,248.88,301112,,,A*6B
$GPGGA,120546.000,5700.8853,N,00959.1553,E,1,5,2.85,70.5,M,42.5,M,,*60
$GPGSA,A,3,11,28,19,01,03,,,,,,,,3.00,2.85,0.94*03
$GPGSV,2,1,07,19,62,177,36,11,58,269,36,01,40,271,38,03,33,168,32*77
$GPGSV,2,2,07,28,25,316,44,24,07,032,,22,,,20*75
$GPRMC,120546.000,A,5700.8853,N,00959.1553,E,0.23,248.88,301112,,,A*66
$GPGSA,A,3,11,28,19,01,03,,,,,,,,3.00,2.85,0.94*03
$GPGSV,2,1,07,19,62,177,36,11,58,269,36,01,40,271,38,03,33,168,32*77
$GPGSV,2,2,07,28,25,316,44,24,07,032,,22,,,20*75
$GPRMC,120547.000,A,5700.8854,N,00959.1554,E,0.25,248.88,301112,,,A*61
$GPGSA,A,3,11,28,19,01,03,,,,,,,,3.00,2.85,0.94*03
$GPGSV,2,1,07,19,62,177,36,11,58,269,36,01,40,271,38,03,33,168,32*77
$GPGSV,2,2,07,28,25,316,44,24,07,032,,22,,,20*75
$GPGGA,120549.000,5700.8854,N,00959.1556,E,1,5,2.85,70.5,M,42.5,M,,*6D
$GPGSA,A,3,11,28,19,01,03,,,,,,,,3.00,2.85,0.94*03
$GPGSV,2,1,07,19,62,177,36,11,58,269,36,01,40,271,38,03,33,168,32*77
$GPGSV,2,2,07,28,25,316,44,24,07,032,,22,,,20*75
$GPRMC,120549.000,A,5700.8854,N,00959.1556,E,0.14,248.88,301112,,,A*6F
$GPGGA,120550.000,5700.8854,N,00959.1557,E,1,5,2.85,70.4,M,42.5,M,,*65
$GPGSV,2,1,07,19,62,177,36,11,58,269,37,01,40,271,38,03,33,168,32*76
$GPGSV,2,2,07,28,25,316,44,24,07,032,,22,,,20*75
$GPRMC,120550.000,A,5700.8854,N,00959.1557,E,0.12,248.88,301112,,,A*60
$GPGGA,120551.000,5700.8854,N,00959.1557,E,1,5,2.85,70.4,M,42.5,M,,*64
$GPGSA,A,3,11,28,19,01,03,,,,,,,,3.01,2.85,0.94*02
$GPGSV,2,1,07,19,62,177,36,11,58,269,37,01,40,271,38,03,33,168,32*76
$GPGSV,2,2,07,28,25,316,44,24,07,032,,22,,,20*75
$GPRMC,120551.000,A,5700.8854,N,00959.1557,E,0.13,248.88,301112,,,A*60
$GPGSA,A,3,11,28,19,01,03,,,,,,,,3.01,2.85,0.94*02
$GPGSV,2,1,07,19,62,177,36,11,58,269,37,01,40,271,38,03,33,168,32*76
$GPGSV,2,2,07,28,25,316,44,24,07,032,,22,,,20*75
$GPRMC,120552.000,A,5700.8853,N,00959.1557,E,0.11,248.88,301112,,,A*66
$GPGSA,A,3,11,28,19,01,03,,,,,,,,3.01,2.85,0.94*02
$GPGSV,2,1,07,19,62,177,36,11,58,269,37,01,40,271,38,03,33,168,32*76
$GPGSV,2,2,07,28,25,316,44,24,07,032,,22,,,20*75
$GPGGA,120554.000,5700.8853,N,00959.1558,E,1,5,2.86,70.4,M,42.5,M,,*6A
$GPGSA,A,3,11,28,19,01,03,,,,,,,,3.01,2.86,0.94*01
$GPGSV,2,1,07,19,62,177,36,11,58,269,37,01,40,271,38,03,33,168,32*76
$GPGSV,2,2,07,28,25,316,44,24,07,032,,22,,,19*7F
$GPRMC,120554.000,A,5700.8853,N,00959.1558,E,0.30,248.88,301112,,,A*6C
$GPGGA,120555.000,5700.8853,N,00959.1560,E,1,5,2.86,70.4,M,42.5,M,,*60
$GPGSA,A,3,11,28,19,01,03,,,,,,,,3.01,2.86,0.94*01
$GPGSV,2,1,07,19,62,177,36,11,58,269,37,01,40,271,39,03,33,168,32*77
$GPGSV,2,2,07,28,25,316,44,24,07,032,,22,,,19*7F
$GPRMC,120555.000,A,5700.8853,N,00959.1560,E,0.35,248.88,301112,,,A*63
$GPGGA,120556.000,5700.8853,N,00959.1561,E,1,5,2.86,70.3,M,42.5,M,,*65
$GPGSA,A,3,11,28,19,01,03,,,,,,,,3.01,2.86,0.94*01
$GPGSV,2,1,07,19,62,177,36,11,58,269,37,01,40,271,39,03,33,168,32*77
$GPGSV,2,2,07,28,25,316,44,24,07,032,,22,,,19*7F
$GPGGA,120557.000,5700.8854,N,00959.1562,E,1,5,2.86,70.3,M,42.5,M,,*60
$GPGSA,A,3,11,28,19,01,03,,,,,,,,3.01,2.86,0.94*01
$GPGSV,2,1,07,19,62,177,36,11,58,269,37,01,40,271,39,03,33,168,32*77
$GPGSV,2,2,07,28,25,316,44,24,07,032,,22,,,19*7F
$GPRMC,120557.000,A,5700.8854,N,00959.1562,E,0.22,248.88,301112,,,A*62
$GPGSA,A,3,11,28,19,01,03,,,,,,,,3.01,2.86,0.94*01
$GPGSV,2,1,07,19,62,177,36,11,58,269,37,01,40,271,39,03,33,168,32*77
$GPGSV,2,2,07,28,25,316,44,24,07,032,,22,,,19*7F
$GPGGA,120559.000,5700.8854,N,00959.1565,E,1,5,2.86,70.3,M,42.5,M,,*69
$GPGSA,A,3,11,28,19,01,03,,,,,,,,3.01,2.86,0.94*01
$GPGSV,2,2,07,28,25,316,44,24,07,032,,22,,,19*7F
$GPGGA,120600.000,5700.8854,N,00959.1565,E,1,5,2.86,70.3,M,42.5,M,,*66
$GPGSV,2,1,07,19,62,177,34,11,58,269,37,01,40,271,39,03,33,168,32*75
$GPGSV,2,2,07,28,25,316,44,24,07,032,,22,,,19*7F
$GPRMC,120600.000,A,5700.8854,N,00959.1565,E,0.07,248.88,301112,,,A*63
$GPGSA,A,3,11,28,19,01,03,,,,,,,,3.01,2.86,0.94*01
$GPGSV,2,2,07,28,25,316,44,24,07,032,,22,,,20*75
$GPRMC,120601.000,A,5700.8854,N,00959.1565,E,0.06,248.88,301112,,,A*63
$GPGGA,120602.000,5700.8853,N,00959.1565,E,1,5,2.86,70.2,M,42.5,M,,*62
$GPGSA,A,3,11,28,19,01,03,,,,,,,,3.02,2.86,0.94*02
$GPGSV,2,2,07,28,25,316,44,24,07,032,,22,,,20*75
$GPRMC,120602.000,A,5700.8853,N,00959.1565,E,0.08,248.88,301112,,,A*69
$GPGGA,120603.000,5700.8854,N,00959.1566,E,1,5,2.87,70.2,M,42.5,M,,*66
$GPGSA,A,3,11,28,19,01,03,,,,,,,,3.02,2.87,0.94*03
$GPGSV,2,2,07,28,25,316,44,24,07,032,,22,,,20*75
$GPRMC,120603.000,A,5700.8854,N,00959.1566,E,0.10,248.88,301112,,,A*65
$GPGGA,120604.000,5700.8854,N,00959.1566,E,1,5,2.87,70.2,M,42.5,M,,*61
$GPGSA,A,3,11,28,19,01,03,,,,,,,,3.02,2.87,0.94*03
$GPGSV,2,2,07,28,25,316,44,24,07,,22,,,20*75
$GPRMC,120604.000,A,5700.8854,N,00959.1566,E,0.07,248.88,301112,,,A*64
$GPGGA,120605.000,5700.8854,N,00959.1566,E,1,5,2.87,70.2,M,42.5,M,,*60
$GPGSA,A,3,11,28,19,01,03,,,,,,,,3.02,2.87,0.94*03
$GPGSV,2,2,07,28,25,316,44,24,07,032,,22,,,20*75
$GPRMC,120605.000,A,5700.8854,N,00959.1566,E,0.05,248.88,301112,,,A*67
$GPGGA,120606.000,5700.8854,N,00959.1567,E,1,5,2.87,70.2,M,42.5,M,,*62
$GPGSA,A,3,11,28,19,01,03,,,,,,,,3.02,2.87,0.94*03
$GPGSV,2,2,07,28,25,316,44,24,07,032,,22,,,20*75
$GPRMC,120606.000,A,5700.8854,N,00959.1567,E,0.06,248.88,301112,,,A*66
$GPGGA,120607.000,5700.8854,N,00959.1567,E,1,5,2.87,70.1,M,42.5,M,,*60
$GPGSA,A,3,11,28,19,01,03,,,,,,,,3.02,2.87,0.94*03
$GPGSV,2,1,07,19,62,177,35,11,58,269,38,01,40,271,40,03,33,168,32*75
$GPGSV,2,2,07,28,25,316,44,24,07,032,,22,,,20*75
$GPRMC,120607.000,A,5700.8854,N,00959.1567,E,0.03,248.88,301112,,,A*62
$GPGGA,120608.000,5700.8854,N,00959.1567,E,1,5,2.87,70.1,M,42.5,M,,*6F
$GPGSA,A,3,11,28,19,01,03,,,,,,,,3.02,2.87,0.94*03
$GPGSV,2,1,07,19,62,177,35,11,58,269,38,01,40,271,40,03,33,168,32*75
$GPGSV,2,2,07,28,25,316,44,24,07,032,,22,,,20*75
$GPRMC,120608.000,A,5700.8854,N,00959.1567,E,0.08,248.88,301112,,,A*66
$GPGSA,A,3,11,28,19,01,03,,,,,,,,3.02,2.87,0.94*03
$GPGSV,2,1,07,19,62,177,35,11,58,269,38,01,40,271,40,03,33,168,32*75
$GPGSV,2,2,07,28,25,316,44,24,07,032,,22,,,20*75
$GPRMC,120609.000,A,5700.8854,N,00959.1567,E,0.05,248.88,301112,,,A*6A
$GPGGA,120610.000,5700.8854,N,00959.1568,E,1,5,2.87,70.1,M,42.5,M,,*69
$GPGSA,A,3,11,28,19,01,03,,,,,,,,3.02,2.87,0.94*03
$GPGSV,2,1,07,19,62,177,35,11,58,269,38,01,40,271,40,03,33,168,32*75
$GPGSV,2,2,07,28,25,316,44,24,07,032,,22,,,20*75
$GPRMC,120610.000,A,5700.8854,N,00959.1568,E,0.09,248.88,301112,,,A*61
$GPGGA,120611.000,5700.8854,N,00959.1568,E,1,5,2.87,70.0,M,42.5,M,,*69
$GPGSA,A,3,11,28,19,01,03,,,,,,,,3.03,2.87,0.94*02
$GPGSV,2,1,07,19,62,177,35,11,58,269,38,01,40,271,40,03,33,168,32*75
$GPGSV,2,2,07,28,25,316,44,24,07,032,,22,,,20*75
$GPGSA,A,3,11,28,19,01,03,,,,,,,,3.03,2.88,0.94*0D
$GPGSV,2,1,07,19,62,177,35,11,58,269,38,01,40,271,40,03,33,168,32*75
$GPGSV,2,2,07,28,25,316,44,24,07,032,,22,,,19*7F
$GPRMC,120612.000,A,5700.8854,N,00959.1568,E,0.07,248.88,301112,,,A*6D
$GPGGA,120613.000,5700.8854,N,00959.1569,E,1,5,2.88,70.0,M,42.5,M,,*65
$GPGSA,A,3,11,28,19,01,03,,,,,,,,3.03,2.88,0.94*0D
$GPGSV,2,1,07,19,62,177,35,11,58,269,38,01,40,271,41,03,33,168,32*74
$GPGSV,2,2,07,28,25,316,43,24,07,032,,22,,,19*78
$GPRMC,120613.000,A,5700.8854,N,00959.1569,E,0.06,248.88,301112,,,A*6C
$GPGGA,120614.000,5700.8854,N,00959.1569,E,1,5,2.88,70.0,M,42.5,M,,*62
$GPGSA,A,3,11,28,19,01,03,,,,,,,,3.03,2.88,0.94*0D
$GPGSV,2,1,07,19,62,177,35,11,58,269,38,01,40,271,41,03,33,168,32*74
$GPGSV,2,2,07,28,25,316,43,24,07,,22,,,19*78
$GPRMC,120614.000,A,5700.8854,N,00959.1569,E,0.06,248.88,301112,,,A*6B
$GPGGA,120615.000,5700.8854,N,00959.1569,E,1,5,2.88,69.9,M,42.5,M,,*62
$GPGSA,A,3,11,28,19,01,03,,,,,,,,3.03,2.88,0.94*0D
$GPGSV,2,1,07,19,62,177,35,11,58,269,38,01,40,271,41,03,33,168,32*74
$GPGSV,2,2,07,28,25,316,43,24,07,032,,22,,,18*79
$GPGGA,120616.000,5700.8854,N,00959.1570,E,1,5,2.88,69.9,M,42.5,M,,*69
$GPGSA,A,3,11,28,19,01,03,,,,,,,,3.03,2.88,0.94*0D
$GPGSV,2,1,07,19,62,177,35,11,58,269,38,01,40,271,41,03,33,168,31*77
$GPGSV,2,2,07,28,25,316,43,24,07,032,,22,,,18*79
$GPRMC,120616.000,A,5700.8854,N,00959.1570,E,0.07,248.88,301112,,,A*60
$GPGGA,120617.000,5700.8854,N,00959.1570,E,1,5,2.88,69.9,M,42.5,M,,*68
$GPGSA,A,3,11,28,19,01,03,,,,,,,,3.03,2.88,0.94*0D
$GPGSV,2,1,07,19,62,177,35,11,58,269,38,01,40,271,41,03,33,168,31*77
$GPGSV,2,2,07,28,25,316,43,24,07,032,,22,,,18*79
$GPRMC,120617.000,A,5700.8854,N,00959.1570,E,0.14,248.88,301112,,,A*63
$GPGSA,A,3,11,28,19,01,03,,,,,,,,4.15,3.03,2.84*0C
$GPGSV,2,1,07,19,62,177,35,11,58,269,38,01,40,271,41,03,33,168,31*77
$GPGSV,2,2,07,28,25,316,43,24,07,032,,22,,,18*79
$GPRMC,120618.000,A,5700.8855,N,00959.1570,E,0.15,248.88,301112,,,A*6C
$GPGGA,120619.000,5700.8855,N,00959.1570,E,1,5,2.88,69.8,M,42.5,M,,*66
$GPGSV,2,1,07,19,62,177,35,11,58,269,38,01,40,271,41,03,33,168,31*77
$GPGSV,2,2,07,28,25,316,43,24,07,032,,22,,,18*79
$GPRMC,120619.000,A,5700.8855,N,00959.1570,E,0.11,248.88,301112,,,A*69
$GPGGA,120620.000,5700.8855,N,00959.1571,E,1,5,2.88,69.8,M,42.5,M,,*6D
$GPGSA,A,3,11,28,19,01,03,,,,,,,,3.03,2.88,0.94*0D
$GPGSV,2,1,07,19,62,177,35,11,58,269,38,01,40,271,41,03,33,168,31*77
$GPGSV,2,2,07,28,25,316,43,24,07,032,,22,,,17*76
$GPRMC,120620.000,A,5700.8855,N,00959.1571,E,0.04,248.88,301112,,,A*66
$GPGGA,120621.000,5700.8855,N,00959.1571,E,1,5,3.04,69.8,M,42.5,M,,*69
$GPGSA,A,3,11,28,19,01,03,,,,,,,,4.15,3.04,2.83*0C
$GPGSV,2,1,07,19,62,177,35,11,58,269,38,01,40,271,41,03,33,168,31*77
$GPGSV,2,2,07,28,25,316,43,24,07,032,,22,,,16*77
$GPGSA,A,3,11,28,19,01,03,,,,,,,,3.04,2.89,0.94*0B
$GPGSV,2,1,07,19,61,176,35,11,58,269,38,01,40,271,41,03,33,168,30*74
$GPGSV,2,2,07,28,25,316,43,24,07,032,,22,,,15*74
$GPRMC,120622.000,A,5700.8855,N,00959.1570,E,0.05,248.88,301112,,,A*64
$GPGGA,120623.000,5700.8855,N,00959.1570,E,1,5,3.04,69.7,M,42.5,M,,*65
$GPGSV,2,1,07,19,61,176,35,11,58,269,38,01,40,271,41,03,33,168,30*74
$GPGSV,2,2,07,28,25,316,43,24,07,,22,,,14*75
$GPGSA,A,3,11,28,19,01,03,,,,,,,,3.04,2.89,0.94*0B
$GPGSV,2,1,07,19,61,176,34,11,58,269,38,01,40,271,41,03,33,168,30*75
$GPGSV,2,2,07,28,25,316,43,24,07,032,,22,,,15*74
$GPRMC,120624.000,A,5700.8855,N,00959.1571,E,0.17,248.88,301112,,,A*60
$GPGGA,120625.000,5700.8856,N,00959.1571,E,1,5,2.89,69.7,M,42.5,M,,*65
$GPGSA,A,3,11,28,19,01,03,,,,,,,,3.04,2.89,0.94*0B
$GPGSV,2,1,07,19,61,176,34,11,58,269,38,01,40,271,41,03,33,168,29*7D
$GPGSV,2,2,07,28,25,316,43,24,07,032,,22,,,16*77
$GPRMC,120625.000,A,5700.8856,N,00959.1571,E,0.13,248.88,301112,,,A*66
$GPGGA,120626.000,5700.8856,N,00959.1572,E,1,5,2.89,69.7,M,42.5,M,,*65
$GPGSA,A,3,11,28,19,01,03,,,,,,,,3.04,2.89,0.94*0B
$GPGSV,2,1,07,19,61,176,34,11,58,269,38,01,40,271,41,03,33,168,29*7D
$GPGSV,2,2,07,28,25,316,43,24,07,032,,22,,,16*77
$GPRMC,120626.000,A,5700.8856,N,00959.1572,E,0.25,248.88,301112,,,A*63
$GPGGA,120627.000,5700.8857,N,00959.1573,E,1,5,2.89,69.6,M,42.5,M,,*65
$GPGSA,A,3,11,28,19,01,03,,,,,,,,3.04,2.89,0.94*0B
$GPGSV,2,1,07,19,61,176,34,11,58,269,38,01,40,271,42,03,33,168,29*7E
$GPGSV,2,2,07,28,25,316,43,24,07,032,,22,,,16*77
$GPRMC,120627.000,A,5700.8857,N,00959.1573,E,0.18,248.88,301112,,,A*6C
$GPGGA,120628.000,5700.8857,N,00959.1574,E,1,5,2.89,69.6,M,42.5,M,,*6D
$GPGSA,A,3,11,28,19,01,03,,,,,,,,3.04,2.89,0.94*0B
$GPGSV,2,1,07,19,61,176,34,11,58,269,38,01,40,271,42,03,33,168,29*7E
$GPGSV,2,2,07,28,25,316,43,24,07,032,,22,,,17*76
$GPRMC,120628.000,A,5700.8857,N,00959.1574,E,0.13,248.88,301112,,,A*6F
$GPGGA,120629.000,5700.8857,N,00959.1574,E,1,5,2.89,69.6,M,42.5,M,,*6C
$GPGSA,A,3,11,28,19,01,03,,,,,,,,3.04,2.89,0.94*0B
$GPGSV,2,1,07,19,61,176,34,11,58,269,38,01,40,271,42,03,33,168,29*7E
$GPGSV,2,2,07,28,25,316,43,24,07,032,,22,,,17*76
$GPGGA,120630.000,5700.8857,N,00959.1574,E,1,5,3.05,69.6,M,42.5,M,,*61
$GPGSA,A,3,11,28,19,01,03,,,,,,,,4.16,3.05,2.83*0E
$GPGSV,2,1,07,19,61,176,34,11,58,269,38,01,40,271,42,03,33,168,28*7F
$GPGSV,2,2,07,28,25,316,43,24,07,032,,22,,,17*76
$GPGGA,120631.000,5700.8858,N,00959.1574,E,1,5,2.90,69.6,M,42.5,M,,*62
$GPGSA,A,3,11,28,19,01,03,,,,,,,,3.05,2.90,0.94*02
$GPGSV,2,1,07,19,61,176,34,11,58,269,38,01,40,271,42,03,33,168,28*7F
$GPGSV,2,2,07,28,25,316,43,24,07,032,,22,,,17*76
$GPRMC,120631.000,A,5700.8858,N,00959.1574,E,0.09,248.88,301112,,,A*63
$GPGGA,120632.000,5700.8858,N,00959.1573,E,1,5,2.90,69.6,M,42.5,M,,*66
$GPGSA,A,3,11,28,19,01,03,,,,,,,,3.05,2.90,0.94*02
$GPGSV,2,1,07,19,61,176,34,11,58,269,38,01,40,271,42,03,33,168,28*7F
$GPGSV,2,2,07,28,25,316,43,24,07,032,,22,,,17*76
$GPRMC,120632.000,A,5700.8858,N,00959.1573,E,0.16,248.88,301112,,,A*69
$GPGGA,120633.000,5700.8858,N,00959.1573,E,1,5,2.90,69.6,M,42.5,M,,*67
$GPGSA,A,3,11,28,19,01,03,,,,,,,,3.05,2.90,0.94*02
$GPGSV,2,1,07,19,61,176,34,11,58,269,38,01,40,271,42,03,33,168,28*7F
$GPGSV,2,2,07,28,25,316,43,24,07,032,,22,,,17*76
$GPRMC,120633.000,A,5700.8858,N,00959.1573,E,0.25,248.88,301112,,,A*68
$GPGGA,120634.000,5700.8857,N,00959.1571,E,1,5,2.90,69.6,M,42.5,M,,*6D
$GPGSA,A,3,11,28,19,01,03,,,,,,,,3.05,2.90,0.94*02
$GPGSV,2,1,07,19,61,176,34,11,58,269,39,01,40,271,42,03,33,168,28*7E
$GPGSV,2,2,07,28,25,316,43,24,07,032,,22,,,17*76
$GPGSA,A,3,11,28,19,01,03,,,,,,,,3.05,2.90,0.94*02
$GPGSV,2,1,07,19,61,176,34,11,58,269,39,01,40,271,42,03,33,168,28*7E
$GPGSV,2,2,07,28,25,316,43,24,07,032,,22,,,17*76
$GPRMC,120635.000,A,5700.8857,N,00959.1571,E,0.11,248.88,301112,,,A*64
$GPGGA,120636.000,5700.8857,N,00959.1570,E,1,5,2.90,69.5,M,42.5,M,,*6D
$GPGSA,A,3,11,28,19,01,03,,,,,,,,3.05,2.90,0.94*02
$GPGSV,2,1,07,19,61,176,34,11,58,269,39,01,41,271,42,03,33,168,27*70
$GPGSV,2,2,07,28,25,316,42,24,07,032,,22,,,17*77
$GPGGA,120637.000,5700.8858,N,00959.1569,E,1,5,2.90,69.5,M,42.5,M,,*6B
$GPGSA,A,3,11,28,19,01,03,,,,,,,,3.05,2.90,0.94*02
$GPGSV,2,1,07,19,61,176,34,11,58,269,39,01,41,271,42,03,33,168,27*70
$GPGSV,2,2,07,28,25,316,42,24,07,032,,22,,,17*77
$GPRMC,120637.000,A,5700.8858,N,00959.1569,E,0.25,248.88,301112,,,A*67
$GPGGA,120638.000,5700.8858,N,00959.1568,E,1,5,2.90,69.5,M,42.5,M,,*65
$GPGSA,A,3,11,28,19,01,03,,,,,,.05,2.90,0.94*02
$GPGSV,2,1,07,19,61,176,34,11,58,269,39,01,41,271,42,03,33,168,27*70
$GPGSV,2,2,07,28,25,316,42,24,07,032,,22,,,17*77
$GPRMC,120638.000,A,5700.8858,N,00959.1568,E,0.16,248.88,301112,,,A*69
$GPGSA,A,3,11,28,19,01,03,,,,,,,,3.05,2.90,0.94*02
$GPGSV,2,1,07,19,61,176,34,11,58,269,39,01,41,271,42,03,33,168,27*70
$GPGSV,2,2,07,28,25,316,42,24,07,032,,22,,,17*77
$GPGGA,120640.000,5700.8858,N,00959.1566,E,1,5,2.91,69.5,M,42.5,M,,*65
$GPGSA,A,3,11,28,19,01,03,,,,,,,,3.06,2.91,0.94*00
$GPGSV,2,2,07,28,25,316,42,24,07,032,,22,,,17*77
$GPRMC,120640.000,A,5700.8858,N,00959.1566,E,0.37,248.88,301112,,,A*6B
$GPGSA,A,3,11,28,19,01,03,,,,,,,,3.06,2.91,0.94*00
$GPGSV,2,2,07,28,25,316,42,24,07,032,,22,,,17*77
$GPRMC,120641.000,A,5700.8858,N,00959.1564,E,0.40,248.88,301112,,,A*68
$GPGGA,120642.000,5700.8857,N,00959.1562,E,1,5,2.91,69.5,M,42.5,M,,*6C
$GPGSA,A,3,11,28,19,01,03,,,,,,,,3.06,2.91,0.94*00
$GPGSV,2,2,07,28,25,316,42,24,07,032,,22,,,17*77
$GPRMC,120642.000,A,5700.8857,N,00959.1562,E,0.31,248.88,301112,,,A*64
$GPGGA,120643.000,5700.8857,N,00959.1561,E,1,5,2.91,69.5,M,42.5,M,,*6E
$GPGSA,A,3,11,28,19,01,03,,,,,,,,3.06,2.91,0.94*00
$GPGSV,2,2,07,28,25,316,42,24,07,,22,,,17*77
$GPRMC,120643.000,A,5700.8857,N,00959.1561,E,0.27,248.88,301112,,,A*61
$GPGSA,A,3,11,28,19,01,03,,,,,,,,3.06,2.91,0.94*00
$GPGSV,2,2,07,28,25,316,42,24,07,032,,22,,,17*77
$GPRMC,120644.000,A,5700.8858,N,00959.1560,E,0.25,248.88,301112,,,A*6A
$GPGGA,120645.000,5700.8858,N,00959.1559,E,1,5,2.91,69.5,M,42.5,M,,*6C
$GPGSA,A,3,11,28,19,01,03,,,,,,,,3.06,2.91,0.94*00
$GPGSV,2,2,07,28,25,316,42,24,07,,22,,,17*77
$GPRMC,120645.000,A,5700.8858,N,00959.1559,E,0.29,248.88,301112,,,A*6D
$GPGGA,120646.000,5700.8859,N,00959.1557,E,1,5,2.91,69.4,M,42.5,M,,*61
$GPGSA,A,3,11,28,19,01,03,,,,,,,,3.06,2.91,0.94*00
$GPGSV,2,2,07,28,25,316,42,24,07,032,,22,,,17*77
$GPGGA,120647.000,5700.8859,N,00959.1556,E,1,5,2.91,69.4,M,42.5,M,,*61
$GPGSA,A,3,11,28,19,01,03,,,,,,,,3.06,2.91,0.94*00
$GPGSV,2,1,07,19,61,176,34,11,59,269,40,01,41,271,43,03,33,168,27*7E
$GPGSV,2,2,07,28,25,316,42,24,07,032,,22,,,17*77
$GPGGA,120648.000,5700.8859,N,00959.1554,E,1,5,2.92,69.4,M,42.5,M,,*6F
$GPGSV,2,1,07,19,61,176,34,11,59,269,40,01,41,271,43,03,33,168,27*7E
$GPGSV,2,2,07,28,25,316,42,24,07,032,,22,,,17*77
$GPGSA,A,3,11,28,19,01,03,,,,,,,,3.07,2.92,0.94*02
$GPGSV,2,1,07,19,61,176,34,11,59,269,40,01,41,271,43,03,33,168,27*7E
$GPGSV,2,2,07,28,25,316,42,24,07,,22,,,16*76
$GPRMC,120649.000,A,5700.8859,N,00959.1553,E,0.29,248.88,301112,,,A*6A
$GPGGA,120650.000,5700.8859,N,00959.1551,E,1,5,2.92,69.4,M,42.5,M,,*63
$GPGSV,2,1,07,19,61,176,34,11,59,269,40,01,41,271,43,03,33,168,27*7E
$GPGSV,2,2,07,28,25,316,42,24,07,032,,22,,,16*76
$GPRMC,120650.000,A,5700.8859,N,00959.1551,E,0.34,248.88,301112,,,A*6C
$GPGGA,120651.000,5700.8859,N,00959.1550,E,1,5,2.92,69.4,M,42.5,M,,*63
$GPGSA,A,3,11,28,19,01,03,,,,,,,,3.07,2.92,0.94*02
$GPGSV,2,1,07,19,61,176,34,11,59,269,41,01,41,271,43,03,33,168,27*7F
$GPGSV,2,2,07,28,25,316,42,24,07,032,,22,,,16*76
$GPRMC,120651.000,A,5700.8859,N,00959.1550,E,0.26,248.88,301112,,,A*6F
$GPGGA,120652.000,5700.8859,N,00959.1549,E,1,5,2.92,69.4,M,42.5,M,,*68
$GPGSA,A,3,11,28,19,01,03,,,,,,,,3.07,2.92,0.94*02
$GPGSV,2,1,07,19,61,176,34,11,59,269,41,01,41,271,43,03,33,168,28*70
$GPGSV,2,2,07,28,25,316,42,24,07,032,,22,,,16*76
$GPRMC,120652.000,A,5700.8859,N,00959.1549,E,0.29,248.88,301112,,,A*6B
$GPGGA,120653.000,5700.8860,N,00959.1548,E,1,5,2.92,69.4,M,42.5,M,,*62
$GPGSA,A,3,11,28,19,01,03,,,,,,,,3.07,2.92,0.94*02
$GPGSV,2,1,07,19,61,176,34,11,59,269,41,01,41,271,43,03,33,168,28*70
$GPGSV,2,2,07,28,25,316,42,24,07,,22,,,16*76
$GPRMC,120653.000,A,5700.8860,N,00959.1548,E,0.29,248.88,301112,,,A*61
$GPGGA,120654.000,5700.8861,N,00959.1547,E,1,5,2.92,69.4,M,42.5,M,,*6B
$GPGSA,A,3,11,28,19,01,03,,,,,,,,3.07,2.92,0.94*02
$GPGSV,2,1,07,19,61,176,34,11,59,269,41,01,41,271,43,03,33,168,28*70
$GPGSV,2,2,07,28,25,316,42,24,07,032,,22,,,16*76
$GPRMC,120654.000,A,5700.8861,N,00959.1547,E,0.24,248.88,301112,,,A*65
$GPGSA,A,3,11,28,19,01,03,,,,,,,,3.07,2.92,0.94*02
$GPGSV,2,1,07,19,61,176,34,11,59,269,41,01,41,271,44,03,33,168,28*77
$GPGSV,2,2,07,28,25,316,42,24,07,032,,22,,,15*75
$GPGGA,120656.000,5700.8861,N,00959.1545,E,1,5,2.92,69.4,M,42.5,M,,*6B
$GPGSA,A,3,11,28,19,01,03,,,,,,,,3.07,2.92,0.94*02
$GPGSV,2,1,07,19,61,176,34,11,59,269,41,01,41,271,44,03,33,168,28*77
$GPGSV,2,2,07,28,25,316,42,24,07,032,,22,,,15*75
$GPRMC,120656.000,A,5700.8861,N,00959.1545,E,0.21,248.88,301112,,,A*60
$GPGGA,120657.000,5700.8862,N,00959.1544,E,1,5,2.93,69.4,M,42.5,M,,*69
$GPGSA,A,3,11,28,19,01,03,,,,,,,,3.07,2.93,0.94*03
$GPGSV,2,1,07,19,61,176,34,11,59,269,41,01,41,271,44,03,33,168,28*77
$GPGSV,2,2,07,28,25,316,42,24,07,032,,22,,,15*75
$GPRMC,120657.000,A,5700.8862,N,00959.1544,E,0.22,248.88,301112,,,A*60
$GPGGA,120658.000,5700.8862,N,00959.1543,E,1,5,2.93,69.4,M,42.5,M,,*61
$GPGSV,2,1,07,19,61,176,34,11,59,269,41,01,41,271,44,03,33,168,28*77
$GPGSV,2,2,07,28,25,316,42,24,07,032,,22,,,15*75
$GPRMC,120658.000,A,5700.8862,N,00959.1543,E,0.16,248.88,301112,,,A*6F
$GPGGA,120659.000,5700.8862,N,00959.1542,E,1,5,2.93,69.4,M,42.5,M,,*61
$GPGSA,A,3,11,28,19,01,03,,,,,,,,3.08,2.93,0.94*0C
$GPGSV,2,1,07,19,61,176,34,11,59,269,41,01,41,271,44,03,33,168,28*77
$GPGSV,2,2,07,28,25,316,42,24,07,032,,22,,,15*75
$GPRMC,120659.000,A,5700.8862,N,00959.1542,E,0.13,248.88,301112,,,A*6A
$GPGGA,120700.000,5700.8862,N,00959.1542,E,1,5,2.93,69.4,M,42.5,M,,*6C
$GPGSA,A,3,11,28,19,01,03,,,,,,,,3.08,2.93,0.94*0C
$GPGSV,2,1,07,19,61,176,34,11,59,269,41,01,41,271,44,03,33,168,29*76
$GPGSV,2,2,07,28,25,316,42,24,07,032,,22,,,15*75
$GPRMC,120700.000,A,5700.8862,N,00959.1542,E,0.38,248.88,301112,,,A*6E
$GPGGA,120701.000,5700.8863,N,00959.1540,E,1,5,2.93,69.4,M,42.5,M,,*6E
$GPGSA,A,3,11,28,19,01,03,,,,,,,,3.08,2.93,0.94*0C
$GPGSV,2,1,07,19,61,176,34,11,59,269,41,01,41,271,44,03,33,168,29*76
$GPGSV,2,2,07,28,25,316,42,24,07,032,,22,,,15*75
$GPGGA,120702.000,5700.8863,N,00959.1538,E,1,5,2.93,69.3,M,42.5,M,,*65
$GPGSA,A,3,11,28,19,01,03,,,,,,,,3.08,2.93,0.94*0C
$GPGSV,2,1,07,19,61,176,34,11,59,269,41,01,41,271,44,03,33,168,29*76
$GPGSV,2,2,07,28,25,316,42,24,0,,22,,,15*75
$GPRMC,120702.000,A,5700.8863,N,00959.1538,E,0.39,248.88,301112,,,A*61
$GPGGA,120703.000,5700.8863,N,00959.1536,E,1,5,2.93,69.3,M,42.5,M,,*6A
$GPGSA,A,3,11,28,19,01,03,,,,,,,,3.08,2.93,0.94*0C
$GPGSV,2,1,07,19,61,176,34,11,59,269,41,01,41,271,44,03,33,168,29*76
$GPGSV,2,2,07,28,25,316,42,24,07,,22,,,15*75
$GPRMC,120703.000,A,5700.8863,N,00959.1536,E,0.27,248.88,301112,,,A*61
$GPGSV,2,1,07,19,61,176,34,11,59,269,41,01,41,271,44,03,33,168,29*76
$GPGSV,2,2,07,28,25,316,42,24,07,032,,22,,,15*75
$GPRMC,120704.000,A,5700.8862,N,00959.1534,E,0.38,248.88,301112,,,A*6B
$GPGGA,120705.000,5700.8862,N,00959.1533,E,1,5,2.94,69.3,M,42.5,M,,*6F
$GPGSA,A,3,11,28,19,01,03,,,,,,,,3.08,2.94,0.94*0B
$GPGSV,2,1,07,19,61,176,34,11,59,269,41,01,41,271,44,03,33,168,29*76
$GPGSV,2,2,07,28,25,316,42,24,07,032,,22,,,15*75
$GPRMC,120705.000,A,5700.8862,N,00959.1533,E,0.48,248.88,301112,,,A*6A
$GPGGA,120706.000,5700.8862,N,00959.1531,E,1,5,2.94,69.3,M,42.5,M,,*6E
$GPGSA,A,3,11,28,19,01,03,,,,,,,,3.08,2.94,0.94*0B
$GPGSV,2,1,07,19,61,176,34,11,59,269,41,01,41,271,44,03,33,168,29*76
$GPGSV,2,2,07,28,25,316,42,24,07,032,,22,,,15*75
$GPRMC,120706.000,A,5700.8862,N,00959.1531,E,0.57,248.88,301112,,,A*65
$GPGSA,A,3,11,28,19,01,03,,,,,,,,3.08,2.94,0.94*0B
$GPGSV,2,1,07,19,61,176,34,11,59,269,41,01,41,271,44,03,33,168,29*76
$GPGSV,2,2,07,28,25,316,42,24,07,032,,22,,,16*76
$GPRMC,120707.000,A,5700.8861,N,00959.1528,E,0.55,248.88,301112,,,A*6D
$GPGGA,120708.000,5700.8860,N,00959.1526,E,1,5,2.94,69.3,M,42.5,M,,*64
$GPGSA,A,3,11,28,19,01,03,,,,,,,,3.09,2.94,0.94*0A
$GPGSV,2,1,07,19,61,176,34,11,59,269,41,01,41,271,44,03,33,168,29*76
$GPGSV,2,2,07,28,25,316,42,24,07,032,,22,,,15*75
$GPRMC,120708.000,A,5700.8860,N,00959.1526,E,0.50,248.88,301112,,,A*68
$GPGGA,120709.000,5700.8859,N,00959.1524,E,1,5,2.94,69.3,M,42.5,M,,*6D
$GPGSA,A,3,11,28,19,01,03,,,,,,,,3.09,2.94,0.94*0A
$GPGSV,2,1,08,19,61,176,34,11,59,269,41,01,41,271,44,03,33,168,29*79
$GPGSV,2,2,08,28,25,316,42,24,07,032,,22,,,15,32,,,25*7C
$GPRMC,120709.000,A,5700.8859,N,00959.1524,E,0.50,248.88,301112,,,A*61
$GPGGA,120710.000,5700.8859,N,00959.1521,E,1,5,2.94,69.3,M,42.5,M,,*60
$GPGSA,A,3,11,28,19,01,03,,,,,,,,3.09,2.94,0.94*0A
$GPGSV,2,1,08,19,61,176,34,11,59,269,41,01,41,271,44,03,33,168,29*79
$GPGSV,2,2,08,28,25,316,42,24,07,032,,22,,,16,32,,,30*7B
$GPRMC,120710.000,A,5700.8859,N,00959.1521,E,0.41,248.88,301112,,,A*6C
$GPGGA,120711.000,5700.8859,N,00959.1519,E,1,5,2.94,69.3,M,42.5,M,,*6A
$GPGSA,A,3,11,28,19,01,03,,,,,,,,3.09,2.94,0.94*0A
$GPGSV,2,1,08,19,61,176,34,11,59,269,41,01,41,271,44,03,32,168,29*78
$GPGSV,2,2,08,28,25,316,42,24,07,032,,22,,,16,32,,,30*7B
$GPGGA,120712.000,5700.8858,N,00959.1517,E,1,5,2.94,69.3,M,42.5,M,,*66
$GPGSA,A,3,11,28,19,01,03,,,,,,,,3.09,2.94,0.94*0A
$GPGSV,2,1,08,19,61,176,34,11,59,269,41,01,41,271,44,03,32,168,29*78
$GPGSV,2,2,08,28,25,316,42,24,0,,22,,,16,32,,,30*7B
$GPRMC,120712.000,A,5700.8858,N,00959.1517,E,0.52,248.88,301112,,,A*68
$GPGGA,120713.000,5700.8858,N,00959.1515,E,1,5,2.94,69.3,M,42.5,M,,*65
$GPGSA,A,3,11,28,19,01,03,,,,,,,,3.09,2.94,0.94*0A
$GPGSV,2,1,08,19,61,176,34,11,59,269,41,01,41,271,44,03,32,168,29*78
$GPGSV,2,2,08,28,25,316,42,24,07,032,,22,,,16,32,,,30*7B
$GPGGA,120714.000,5700.8857,N,00959.1512,E,1,5,2.95,69.3,M,42.5,M,,*6B
$GPGSA,A,3,11,28,19,01,03,,,,,,,,3.09,2.95,0.94*0B
$GPGSV,2,1,08,19,61,176,34,11,59,269,41,01,41,271,44,03,32,168,29*78
$GPGSV,2,2,08,28,25,316,42,24,07,032,,22,,,16,32,,,29*73
$GPRMC,120714.000,A,5700.8857,N,00959.1512,E,0.49,248.88,301112,,,A*6E
$GPGGA,120715.000,5700.8857,N,00959.1510,E,1,5,2.95,69.3,M,42.5,M,,*68
$GPGSA,A,3,11,28,19,01,03,,,,,,,,3.09,2.95,0.94*0B
$GPGSV,2,1,08,19,61,176,34,11,59,269,41,01,41,271,44,03,32,168,29*78
$GPGSV,2,2,08,28,25,316,42,24,07,032,,22,,,16,32,,,29*73
$GPRMC,120715.000,A,5700.8857,N,00959.1510,E,0.43,248.88,301112,,,A*67
$GPGGA,120716.000,5700.8856,N,00959.1509,E,1,5,2.95,69.3,M,42.5,M,,*62
$GPGSA,A,3,11,28,19,01,03,,,,,,,,3.10,2.95,0.94*03
$GPGSV,2,1,08,19,61,176,34,11,59,269,41,01,41,271,44,03,32,168,30*70
$GPGSV,2,2,08,28,25,316,41,24,07,032,,22,,,16,32,,,29*70
$GPRMC,120716.000,A,5700.8856,N,00959.1509,E,0.45,248.88,301112,,,A*6B
$GPGSA,A,3,11,28,19,01,03,,,,,,,,3.10,2.95,0.94*03
$GPGSV,2,1,08,19,61,176,34,11,59,269,41,01,41,271,44,03,32,168,30*70
$GPGSV,2,2,08,28,25,316,41,24,07,032,,22,,,16,32,,,29*70
$GPRMC,120717.000,A,5700.8855,N,00959.1507,E,0.32,248.88,301112,,,A*67
$GPGGA,120718.000,5700.8855,N,00959.1505,E,1,5,2.95,69.3,M,42.5,M,,*63
$GPGSA,A,3,11,28,19,01,03,,,,,,,,3.10,2.95,0.94*03
$GPGSV,2,1,08,19,61,176,34,11,59,269,41,01,41,271,44,03,32,168,30*70
$GPGSV,2,2,08,28,25,316,41,24,07,032,,22,,,16,32,,,29*70
$GPGGA,120719.000,5700.8856,N,00959.1503,E,1,5,2.95,69.3,M,42.5,M,,*67
$GPGSA,A,3,11,28,19,01,03,,,,,,,,3.10,2.95,0.94*03
$GPGSV,2,1,08,19,61,176,34,11,59,269,41,01,41,271,44,03,32,168,30*70
$GPGSV,2,2,08,28,25,316,41,24,07,032,,22,,,16,32,,,30*78
$GPRMC,120719.000,A,5700.8856,N,00959.1503,E,0.46,248.88,301112,,,A*6D
$GPGSA,A,3,11,28,19,01,03,,,,,,,,3.10,2.95,0.94*03
$GPGSV,2,1,08,19,61,176,34,11,59,268,41,01,41,271,44,03,32,168,30*71
$GPGSV,2,2,08,28,25,316,41,24,07,032,,22,,,16,32,,,30*78
$GPRMC,120720.000,A,5700.8856,N,00959.1501,E,0.48,248.88,301112,,,A*6B
$GPGGA,120721.000,5700.8856,N,00959.1499,E,1,5,2.95,69.3,M,42.5,M,,*6E
$GPGSA,A,3,11,28,19,01,03,,,,,,,,3.10,2.95,0.94*03
$GPGSV,2,1,08,19,61,176,34,11,59,268,41,01,41,271,44,03,32,168,30*71
$GPRMC,120721.000,A,5700.8856,N,00959.1499,E,0.56,248.88,301112,,,A*65
$GPGGA,120722.000,5700.8855,N,00959.1496,E,1,5,2.95,69.3,M,42.5,M,,*61
$GPGSA,A,3,11,28,19,01,03,,,,,,,,3.10,2.95,0.94*03
$GPGSV,2,1,08,19,61,176,34,11,59,268,41,01,41,271,44,03,32,168,30*71
$GPGGA,120723.000,5700.8855,N,00959.1494,E,1,5,2.96,69.3,M,42.5,M,,*61
$GPGSA,A,3,11,28,19,01,03,,,,,,,,3.10,2.96,0.94*00
$GPGSV,2,1,08,19,61,176,34,11,59,268,41,01,41,271,44,03,32,168,30*71
$GPRMC,120723.000,A,5700.8855,N,00959.1494,E,0.33,248.88,301112,,,A*6A
$GPGGA,120724.000,5700.8855,N,00959.1493,E,1,5,2.96,69.3,M,42.5,M,,*61
$GPGSA,A,3,11,28,19,01,03,,,,,,,,3.10,2.96,0.94*00
$GPGSV,2,1,08,19,61,176,34,11,59,268,41,01,41,271,44,03,32,168,30*71
$GPGSV,2,2,08,28,25,316,39,24,07,032,,22,,,15,32,,,30*74
$GPRMC,120724.000,A,5700.8855,N,00959.1493,E,0.35,248.88,301112,,,A*6C
$GPGGA,120725.000,5700.8854,N,00959.1491,E,1,5,2.96,69.3,M,42.5,M,,*63
$GPGSA,A,3,11,28,19,01,03,,,,,,,,3.10,2.96,0.94*00
$GPGSV,2,1,08,19,61,176,34,11,59,268,41,01,41,271,44,03,32,168,30*71
$GPGSV,2,2,08,28,25,316,39,24,07,032,,22,,,15,32,,,30*74
$GPRMC,120725.000,A,5700.8854,N,00959.1491,E,0.44,248.88,301112,,,A*68
$GPGGA,120726.000,5700.8854,N,00959.1489,E,1,5,2.96,69.3,M,42.5,M,,*69
$GPGSV,2,1,08,19,61,176,34,11,59,268,41,01,41,271,44,03,32,168,30*71
$GPGSV,2,2,08,28,25,316,39,24,07,032,,22,,,15,32,,,30*74
$GPRMC,120726.000,A,5700.8854,N,00959.1489,E,0.57,248.88,301112,,,A*60
$GPGGA,120727.000,5700.8853,N,00959.1487,E,1,5,2.96,69.3,M,42.5,M,,*61
$GPGSV,2,1,08,19,61,176,34,11,59,268,41,01,41,271,44,03,32,168,30*71
$GPGSV,2,2,08,28,25,316,39,24,07,032,,22,,,15,32,,,31*75
$GPRMC,120727.000,A,5700.8853,N,00959.1487,E,0.55,248.88,301112,,,A*6A
$GPGGA,120728.000,5700.8853,N,00959.1484,E,1,5,2.96,69.3,M,42.5,M,,*6D
$GPGSV,2,1,08,19,61,176,34,11,59,268,41,01,41,271,44,03,32,168,30*71
$GPGSV,2,2,08,28,25,316,39,24,07,032,,22,,,16,32,,,31*76
$GPRMC,120728.000,A,5700.8853,N,00959.1484,E,0.39,248.88,301112,,,A*6C
$GPGSV,2,1,08,19,61,176,34,11,59,268,41,01,41,271,44,03,32,168,30*71
$GPGSV,2,2,08,28,25,316,39,24,07,032,,22,,,16,32,,,31*76
$GPRMC,120729.000,A,5700.8852,N,00959.1483,E,0.47,248.88,301112,,,A*62
$GPGGA,120730.000,5700.8852,N,00959.1480,E,1,5,2.96,69.3,M,42.5,M,,*61
$GPGSV,2,1,08,19,61,176,34,11,59,268,41,01,41,271,44,03,32,168,29*79
$GPGSV,2,2,08,28,25,316,39,24,07,032,,22,,,17,32,,,31*77
$GPRMC,120730.000,A,5700.8852,N,00959.1480,E,0.50,248.88,301112,,,A*6F
$GPGGA,120731.000,5700.8852,N,00959.1478,E,1,5,2.97,69.3,M,42.5,M,,*66
$GPGSA,A,3,11,28,19,01,03,,,,,,,,3.11,2.97,0.94*00
$GPGSV,2,1,08,19,61,176,34,11,59,268,41,01,41,271,44,03,32,168,29*79
$GPGSV,2,2,08,28,25,316,39,24,07,032,,22,,,18,32,,,31*78
$GPGSA,A,3,11,28,19,01,03,,,,,,,,3.11,2.97,0.94*00
$GPGSV,2,1,08,19,61,176,34,11,59,268,41,01,41,271,44,03,32,168,29*79
$GPGSV,2,2,08,28,25,316,39,24,07,032,,22,,,19,32,,,31*79
$GPRMC,120732.000,A,5700.8853,N,00959.1476,E,0.55,248.88,301112,,,A*60
$GPGGA,120733.000,5700.8853,N,00959.1473,E,1,6,2.07,69.3,M,42.5,M,,*64
$GPGSA,A,3,11,28,19,01,03,32,,,,26,2.07,0.92*0B
$GPGSV,2,1,08,19,61,176,34,11,59,268,41,01,41,271,44,03,32,168,29*79
$GPRMC,120733.000,A,5700.8853,N,00959.1473,E,0.41,248.88,301112,,,A*61
$GPGGA,120734.000,5700.8852,N,00959.1471,E,1,6,2.07,69.3,M,42.5,M,,*60
$GPGSA,A,3,11,28,19,01,03,32,,,,,,,2.26,2.07,0.92*0B
$GPGSV,2,1,08,19,61,176,34,11,59,268,41,01,41,271,44,03,32,168,27*77
$GPGSA,A,3,11,28,19,01,03,32,,,,,,,2.26,2.07,0.92*0B
$GPGSV,2,1,08,19,61,176,33,11,59,268,40,01,41,271,44,03,32,168,25*73
$GPGSV,2,2,08,32,29,209,23,28,25,38,24,07,031,,22,,,20*42
$GPRMC,120735.000,A,5700.8852,N,00959.1469,E,0.46,248.88,301112,,,A*6A
$GPGSA,A,3,11,28,19,01,03,32,,,,,,,2.26,2.07,0.92*0B
$GPGSV,2,1,08,19,61,176,32,11,59,268,29,01,41,271,37,03,32,168,24*78
$GPRMC,120736.000,A,5700.8851,N,00959.1467,E,0.44,248.88,301112,,,A*66
$GPGGA,120737.000,5700.8851,N,00959.1465,E,1,6,2.07,69.4,M,42.5,M,,*62
$GPGSA,A,3,11,28,19,01,03,32,,,,,,,2.26,2.07,0.92*0B
$GPGSV,2,1,08,19,61,176,30,11,59,268,28,01,41,271,25,03,32,168,25*79
$GPRMC,120737.000,A,5700.8851,N,00959.1465,E,0.53,248.88,301112,,,A*63
$GPGGA,120738.000,5700.8850,N,00959.1463,E,1,6,2.07,69.4,M,42.5,M,,*6A
$GPGSA,A,3,11,28,19,01,03,32,,,,,,,2.27,2.07,0.92*0A
$GPRMC,120738.000,A,5700.8850,N,00959.1463,E,0.53,248.88,301112,,,A*6B
$GPGGA,120739.000,5700.8849,N,00959.1461,E,1,6,2.07,69.3,M,42.5,M,,*66
$GPGSA,A,3,11,28,19,01,03,32,,,,,,,2.26,2.07,0.92*0B
$GPGSV,2,1,08,19,61,176,30,11,59,268,29,01,41,271,23,03,32,168,26*7D
$GPRMC,120739.000,A,5700.8849,N,00959.1461,E,0.65,228.04,301112,,,A*67
$GPGGA,120740.000,5700.8846,N,00959.1457,E,1,6,2.07,69.2,M,42.5,M,,*63
$GPGSA,A,3,11,28,19,01,03,32,,,,,,,2.26,2.07,0.92*0B
$GPGSV,2,1,08,19,61,176,28,11,59,268,31,01,41,271,38,03,32,168,25*74
$GPGGA,120741.000,5700.8846,N,00959.1449,E,1,6,2.07,69.0,M,42.5,M,,*6F
$GPGSA,A,3,11,28,19,01,03,32,,,,27,2.07,0.92*0A
$GPGSV,2,1,08,19,61,176,29,11,59,268,42,01,41,271,36,03,32,168,25*7F
$GPRMC,120741.000,A,5700.8846,N,00959.1449,E,1.68,231.46,301112,,,A*6F
$GPGSV,2,1,08,19,61,176,31,11,59,268,43,01,41,271,38,03,32,168,24*78
$GPRMC,120742.000,A,5700.8844,N,00959.1445,E,1.67,234.74,301112,,,A*69
$GPGGA,120743.000,5700.8839,N,00959.1437,E,1,6,2.07,68.2,M,42.5,M,,*6F
$GPGSA,A,3,11,28,19,01,03,32,,,,,,,2.27,2.07,0.92*0A
$GPGSV,2,1,08,19,61,176,32,11,59,268,42,01,41,271,38,03,32,168,25*7B
$GPGGA,120744.000,5700.8837,N,00959.1430,E,1,6,2.07,67.6,M,42.5,M,,*6A
$GPGSA,A,3,11,28,19,01,03,32,,,,,,,2.27,2.07,0.92*0A
$GPGSV,2,1,08,19,61,176,32,11,59,268,42,01,41,271,38,03,32,168,24*7A
$GPRMC,120744.000,A,5700.8837,N,00959.1430,E,1.68,243.68,301112,,,A*6B
$GPGGA,120745.000,5700.8837,N,00959.1429,E,1,6,2.07,67.1,M,42.5,M,,*64
$GPGSA,A,3,11,28,19,01,03,32,,,,,,,2.27,2.07,0.92*0A
$GPGSV,3,2,09,32,29,209,36,28,25,315,34,06,20,156,,24,07,031,*7D
$GPGSV,3,3,09,22,,,20*72
$GPRMC,120745.000,A,5700.8837,N,00959.1429,E,1.75,301.16,301112,,,A*60
$GPGGA,120746.000,5700.8840,N,00959.1427,E,1,6,2.07,66.7,M,42.5,M,,*6E
$GPGSA,A,3,11,28,19,01,03,32,,,,,,,2.27,2.07,0.92*0A
$GPGSV,3,1,09,19,61,176,34,11,59,268,42,01,41,271,36,03,32,168,24*72
$GPGSV,3,2,09,32,29,209,34,28,26,06,20,156,,24,07,031,*7D
$GPGSV,3,3,09,22,,,20*72
$GPRMC,120746.000,A,5700.8840,N,00959.1427,E,2.04,305.53,301112,,,A*6D
$GPGGA,120747.000,5700.8842,N,00959.1435,E,1,6,2.07,66.1,M,42.5,M,,*68
$GPGSA,A,3,11,28,19,01,03,32,,,,,,,2.27,2.07,0.92*0A
$GPGSV,3,2,09,32,29,209,34,28,25,315,37,06,20,156,,24,07,031,*7C
$GPGSV,3,3,09,22,,,22*70
$GPRMC,120747.000,A,5700.8842,N,00959.1435,E,1.77,312.64,301112,,,A*68
$GPGSA,A,3,11,28,19,01,03,32,,,,,,,2.27,2.07,0.92*0A
$GPGSV,3,1,09,19,61,176,34,11,59,268,43,01,41,271,42,03,32,168,34*71
$GPGSV,3,2,09,32,29,209,33,28,25,315,36,06,20,156,,24,07,031,*7A
$GPGSV,3,3,09,22,,,30*73
$GPRMC,120748.000,A,5700.8841,N,00959.1448,E,1.59,313.14,301112,,,A*64
$GPGGA,120749.000,5700.8839,N,00959.1452,E,1,6,2.07,64.7,M,42.5,M,,*6F
$GPGSA,A,3,11,28,19,01,03,32,,,,,,,2.27,2.07,0.92*0A
$GPGSV,3,2,09,32,29,209,33,28,25,315,34,06,20,156,,24,07,031,*78
$GPGSV,3,3,09,22,,,29*7B
$GPGSA,A,3,11,28,19,01,03,32,,,,,,,2.27,2.07,0.92*0A
$GPGSV,3,1,09,19,61,176,35,11,59,268,43,01,41,271,40,03,32,168,32*74
$GPGSV,3,3,09,22,,,21*73
$GPGGA,120751.000,5700.8841,N,00959.1443,E,1,6,2.07,63.7,M,42.5,M,,*6E
$GPGSV,3,1,09,19,61,176,34,11,59,268,42,01,41,271,42,03,32,168,31*75
$GPGSV,3,2,09,32,29,209,33,28,25,315,36,06,20,156,,24,07,031,*7A
$GPGSV,3,3,09,22,,,21*73
$GPRMC,120751.000,A,5700.8841,N,00959.1443,E,2.00,291.91,301112,,,A*6E
$GPGSA,A,3,11,28,19,01,03,32,,,,,,,2.27,2.08,0.92*05
$GPGSV,3,1,09,19,61,176,41,11,59,268,42,01,41,271,42,03,32,168,33*75
$GPGSV,3,2,09,32,29,209,34,28,25,315,37,06,20,156,,24,07,031,*7C
$GPGSV,3,3,09,22,,,22*70
$GPGSA,A,3,11,28,19,01,03,32,,,,,,,2.27,2.07,0.92*0A
$GPGSV,2,2,08,32,29,209,35,28,25,315,37,06,20,156,,24,07,031,*7D
$GPGGA,120754.000,5700.8823,N,00959.1483,E,1,6,2.08,61.0,M,42.5,M,,*69
$GPGSA,A,3,11,28,19,01,03,32,,,,,,,2.27,2.08,0.92*05
$GPGSV,2,1,08,19,61,176,41,11,59,268,43,01,41,271,41,03,32,168,36*72
$GPGSV,2,2,08,32,29,209,36,28,25,315,27,06,20,156,,24,07,031,*7F
$GPGGA,120755.000,5700.8820,N,00959.1494,E,1,6,2.08,60.1,M,42.5,M,,*6D
$GPGSA,A,3,11,28,19,01,03,32,,,,,,,2.27,2.08,0.92*05
$GPGSV,3,1,09,19,61,176,42,11,59,268,42,01,41,271,39,03,32,168,43*7D
$GPGSV,3,2,09,32,29,209,36,28,25,315,36,06,20,156,,24,07,031,*7F
$GPGSV,3,3,09,22,,,21*73
$GPRMC,120755.000,A,5700.8820,N,00959.1494,E,1.16,195.48,301112,,,A*60
$GPGGA,120756.000,5700.8820,N,00959.1495,E,1,6,2.08,59.7,M,42.5,M,,*63
$GPGSA,A,3,11,28,19,01,03,32,,,,,,,2.27,2.08,0.92*05
$GPGSV,3,2,09,32,29,209,27,28,25,36,06,20,156,,24,07,031,*7F
$GPGSV,3,3,09,22,,,20*72
$GPRMC,120756.000,A,5700.8820,N,00959.1495,E,0.98,246.12,301112,,,A*67
$GPGGA,120757.000,5700.8818,N,00959.1491,E,1,6,2.08,59.0,M,42.5,M,,*6A
$GPGSA,A,3,11,28,19,01,03,32,,,,,,,2.27,2.08,0.92*05
$GPGSV,3,1,09,19,61,176,40,11,59,268,42,01,41,271,40,03,32,168,40*72
$GPGSV,3,3,09,22,,,20*72
$GPRMC,120757.000,A,5700.8818,N,00959.1491,E,1.06,274.99,301112,,,A*6D
$GPGGA,120758.000,5700.8821,N,00959.1487,E,1,6,2.08,58.3,M,42.5,M,,*6A
$GPGSA,A,3,11,28,19,01,03,32,,,,,,,2.27,2.08,0.92*05
$GPGSV,3,1,09,19,61,176,32,11,59,268,42,01,41,271,40,03,32,168,28*79
$GPGSV,3,2,09,32,29,209,40,28,25,315,44,06,20,156,,24,07,031,*7B
$GPGSV,3,3,09,22,,,23*71
$GPGGA,120759.000,5700.8823,N,00959.1491,E,1,6,2.08,57.7,M,42.5,M,,*65
$GPGSA,A,3,11,28,19,01,03,32,,,,,,,2.27,2.08,0.92*05
$GPGSV,3,1,09,19,61,176,42,11,59,268,43,01,41,271,41,03,32,168,39*7E
$GPGSV,3,2,09,32,29,209,32,28,25,315,43,06,20,156,,24,07,031,*79
$GPGSV,3,3,09,22,,,22*70
$GPRMC,120759.000,A,5700.8823,N,00959.1491,E,1.66,279.45,301112,,,A*61
$GPGGA,120800.000,5700.8822,N,00959.1487,E,1,6,2.08,57.1,M,42.5,M,,*66
$GPGSA,A,3,11,28,19,01,03,32,,,,,,,2.27,2.08,0.92*05
$GPGSV,3,1,09,19,61,176,42,11,59,268,43,01,41,271,42,03,32,168,40*73
$GPGSV,3,2,09,32,29,209,33,28,25,315,41,06,20,156,23,24,07,031,*7B
$GPGGA,120801.000,5700.8824,N,00959.1488,E,1,6,2.08,56.3,M,42.5,M,,*6D
$GPGSA,A,3,11,28,19,01,03,32,,,,,,2.27,2.08,0.92*05
