$GPGGA,000049.037,,,,,0,0,,,M,,M,,*41
$GPGSA,A,1,,,,,,,,,,,,,,,*1E
$GPGSV,1,1,00*79
$GPRMC,000049.037,V,,,,,0.00,0.00,060180,,,N*4B
$GPGGA,000050.037,,,,,0,0,,,M,,M,,*49
$GPGSA,A,1,,,,,,,,,,,,,,,*1E
$GPGSV,1,1,00*79
$GPRMC,000050.037,V,,,,,0.00,0.00,060180,,,N*43
$GPGGA,000051.037,,,,,0,0,,,M,,M,,*48
$GPGSA,A,1,,,,,,,,,,,,,,,*1E
$GPGSV,1,1,00*79
$GPRMC,000051.037,V,,,,,0.00,0.00,060180,,,N*42
$GPGGA,000052.037,,,,,0,0,,,M,,M,,*4B
$GPGSA,A,1,,,,,,,,,,,,,,,*1E
$GPGSV,1,1,00*79
$GPRMC,000052.037,V,,,,,0.00,0.00,060180,,,N*41
$GPGGA,000053.037,,,,,0,0,,,M,,M,,*4A
$GPGSA,A,1,,,,,,,,,,,,,,,*1E
$GPGSV,1,1,01,28,,,30*71
$GPRMC,000053.037,V,,,,,0.00,0.00,060180,,,N*40
$GPGGA,000054.037,,,,,0,0,,,M,,M,,*4D
$GPGSA,A,1,,,,,,,,,,,,,,,*1E
$GPGSV,1,1,01,28,,,32*73
$GPRMC,000054.037,V,,,,,0.00,0.00,060180,,,N*47
$GPGGA,000055.037,,,,,0,0,,,M,,M,,*4C
$GPGSA,A,1,,,,,,,,,,,,,,,*1E
$GPGSV,1,1,01,28,,,31*70
$GPRMC,000055.037,V,,,,,0.00,0.00,060180,,,N*46
$GPGGA,000056.037,,,,,0,0,,,M,,M,,*4F
$GPGSA,A,1,,,,,,,,,,,,,,,*1E
$GPGSV,1,1,03,06,,,24,28,,,24,19,,,43*79
$GPRMC,000056.037,V,,,,,0.00,0.00,060180,,,N*45
$GPGGA,000057.037,,,,,0,0,,,M,,M,,*4E
$GPGSA,A,1,,,,,,,,,,,,,,,*1E
$GPGSV,1,1,03,06,,,33,28,,,25,19,,,42*7F
$GPRMC,000057.037,V,,,,,0.00,0.00,060180,,,N*44
$GPGGA,000058.037,,,,,0,0,,,M,,M,,*41
$GPGSA,A,1,,,,,,,,,,,,,,,*1E
$GPGSV,1,1,03,06,,,35,28,,,19,19,,,42*76
$GPRMC,000058.037,V,,,,,0.00,0.00,060180,,,N*4B
$GPGGA,000059.037,,,,,0,0,,,M,,M,,*40
$GPGSA,A,1,,,,,,,,,,,,,,,*1E
$GPGSV,1,1,03,06,,,39,28,,,20,19,,,46*74
$GPRMC,000059.037,V,,,,,0.00,0.00,060180,,,N*4A
$GPGGA,000100.037,,,,,0,0,,,M,,M,,*4D
$GPGSA,A,1,,,,,,,,,,,,,,,*1E
$GPGSV,1,1,03,06,,,36,28,,,21,19,,,46*7A
$GPRMC,000100.037,V,,,,,0.00,0.00,060180,,,N*47
$GPGGA,000101.037,,,,,0,0,,,M,,M,,*4C
$GPGSA,A,1,,,,,,,,,,,,,,,*1E
$GPGSV,1,1,03,06,,,27,28,,,21,19,,,45*79
$GPRMC,000101.037,V,,,,,0.00,0.00,060180,,,N*46
$GPGGA,000102.037,,,,,0,0,,,M,,M,,*4F
$GPGSA,A,1,,,,,,,,,,,,,,,*1E
$GPGSV,1,1,04,06,,,28,28,,,21,19,,,45,03,,,35*74
$GPRMC,000102.037,V,,,,,0.00,0.00,060180,,,N*45
$GPGGA,000103.037,,,,,0,0,,,M,,M,,*4E
$GPGSA,A,1,,,,,,,,,,,,,,,*1E
$GPGSV,1,1,04,06,,,29,28,,,21,19,,,45,03,,,33*73
$GPRMC,000103.037,V,,,,,0.00,0.00,060180,,,N*44
$GPGGA,000104.037,,,,,0,0,,,M,,M,,*49
$GPGSA,A,1,,,,,,,,,,,,,,,*1E
$GPGSV,1,1,04,06,,,29,28,,,21,19,,,45,03,,,37*77
$GPRMC,000104.037,V,,,,,0.00,0.00,060180,,,N*43
$GPGGA,000105.037,,,,,0,0,,,M,,M,,*48
$GPGSA,A,1,,,,,,,,,,,,,,,*1E
$GPGSV,1,1,04,06,,,30,28,,,21,19,,,44,03,,,37*7E
$GPRMC,000105.037,V,,,,,0.00,0.00,060180,,,N*42
$GPGGA,000106.037,,,,,0,0,,,M,,M,,*4B
$GPGSA,A,1,,,,,,,,,,,,,,,*1E
$GPGSV,1,1,04,06,,,30,28,,,22,19,,,44,03,,,37*7D
$GPRMC,000106.037,V,,,,,0.00,0.00,060180,,,N*41
$GPGGA,000107.037,,,,,0,0,,,M,,M,,*4A
$GPGSA,A,1,,,,,,,,,,,,,,,*1E
$GPGSV,1,1,04,06,,,30,28,,,22,19,,,44,03,,,37*7D
$GPRMC,000107.037,V,,,,,0.00,0.00,060180,,,N*40
$GPGGA,122434.260,,,,,0,0,,,M,,M,,*4E
$GPGSA,A,1,,,,,,,,,,,,,,,*1E
$GPGSV,1,1,04,06,,,30,28,,,22,19,,,44,03,,,37*7D
$GPRMC,122434.260,V,,,,,0.00,0.00,100180,,,N*43
$GPGGA,122435.260,,,,,0,0,,,M,,M,,*4F
$GPGSA,A,1,,,,,,,,,,,,,,,*1E
$GPGSV,1,1,04,06,,,30,28,,,22,19,,,44,03,,,37*7D
$GPRMC,122435.260,V,,,,,0.00,0.00,100180,,,N*42
$GPGGA,122436.260,,,,,0,0,,,M,,M,,*4C
$GPGSA,A,1,,,,,,,,,,,,,,,*1E
$GPGSV,2,1,05,06,,,30,28,,,22,19,,,44,03,,,37*7F
$GPGSV,2,2,05,14,,,29*72
$GPRMC,122436.260,V,,,,,0.00,0.00,100180,,,N*41
$GPGGA,122437.260,,,,,0,0,,,M,,M,,*4D
$GPGSA,A,1,,,,,,,,,,,,,,,*1E
$GPGSV,2,1,05,06,,,30,28,,,22,19,,,44,03,,,37*7F
$GPGSV,2,2,05,14,,,30*7A
$GPRMC,122437.260,V,,,,,0.00,0.00,100180,,,N*40
$GPGGA,122438.260,,,,,0,0,,,M,,M,,*42
$GPGSA,A,1,,,,,,,,,,,,,,,*1E
$GPGSV,2,1,05,06,,,30,28,,,22,19,,,44,03,,,37*7F
$GPGSV,2,2,05,14,,,30*7A
$GPRMC,122438.260,V,,,,,0.00,0.00,100180,,,N*4F
$GPGGA,122439.260,,,,,0,0,,,M,,M,,*43
$GPGSA,A,1,,,,,,,,,,,,,,,*1E
$GPGSV,2,1,05,06,,,30,28,,,22,19,,,44,03,,,37*7F
$GPGSV,2,2,05,14,,,30*7A
$GPRMC,122439.260,V,,,,,0.00,0.00,100180,,,N*4E
$GPGGA,122440.260,,,,,0,0,,,M,,M,,*4D
$GPGSA,A,1,,,,,,,,,,,,,,,*1E
$GPGSV,2,1,05,06,,,30,28,,,22,19,,,44,03,,,37*7F
$GPGSV,2,2,05,14,,,30*7A
$GPRMC,122440.260,V,,,,,0.00,0.00,100180,,,N*40
$GPGGA,122441.260,,,,,0,0,,,M,,M,,*4C
$GPGSA,A,1,,,,,,,,,,,,,,,*1E
$GPGSV,2,1,05,06,,,30,28,,,22,19,,,44,03,,,37*7F
$GPGSV,2,2,05,14,,,30*7A
$GPRMC,122441.260,V,,,,,0.00,0.00,100180,,,N*41
$GPGGA,122442.260,,,,,0,0,,,M,,M,,*4F
$GPGSA,A,1,,,,,,,,,,,,,,,*1E
$GPGSV,2,1,05,06,,,30,28,,,22,19,,,44,03,,,37*7F
$GPGSV,2,2,05,14,,,30*7A
$GPRMC,122442.260,V,,,,,0.00,0.00,100180,,,N*42
$GPGGA,122443.260,,,,,0,0,,,M,,M,,*4E
$GPGSA,A,1,,,,,,,,,,,,,,,*1E
$GPGSV,2,1,06,06,,,30,28,,,22,19,,,44,03,,,37*7C
$GPGSV,2,2,06,14,,,30,11,,,33*79
$GPRMC,122443.260,V,,,,,0.00,0.00,100180,,,N*43
$GPGGA,122444.260,,,,,0,0,,,M,,M,,*49
$GPGSA,A,1,,,,,,,,,,,,,,,*1E
$GPGSV,2,1,07,06,,,30,28,,,22,19,,,44,03,,,37*7D
$GPGSV,2,2,07,14,,,30,11,,,32,20,,,31*79
$GPRMC,122444.260,V,,,,,0.00,0.00,100180,,,N*44
$GPGGA,122445.260,,,,,0,0,,,M,,M,,*48
$GPGSA,A,1,,,,,,,,,,,,,,,*1E
$GPGSV,2,1,08,06,,,30,28,,,22,19,,,44,03,,,37*72
$GPGSV,2,2,08,14,,,30,11,,,32,20,,,33,18,,,31*7F
$GPRMC,122445.260,V,,,,,0.00,0.00,100180,,,N*45
$GPGGA,122446.260,,,,,0,0,,,M,,M,,*4B
$GPGSA,A,1,,,,,,,,,,,,,,,*1E
$GPGSV,2,1,08,06,,,30,28,,,22,19,,,44,03,,,37*72
$GPGSV,2,2,08,14,,,30,11,,,32,20,,,32,18,,,32*7D
$GPRMC,122446.260,V,,,,,0.00,0.00,100180,,,N*46
$GPGGA,122447.260,,,,,0,0,,,M,,M,,*4A
$GPGSA,A,1,,,,,,,,,,,,,,,*1E
$GPGSV,2,1,08,06,,,30,28,,,22,19,,,44,03,,,37*72
$GPGSV,2,2,08,14,,,30,11,,,33,20,,,33,18,,,31*7E
$GPRMC,122447.260,V,,,,,0.00,0.00,100180,,,N*47
$GPGGA,122448.260,,,,,0,0,,,M,,M,,*45
$GPGSA,A,1,,,,,,,,,,,,,,,*1E
$GPGSV,2,1,08,06,,,30,28,,,23,19,,,44,03,,,37*73
$GPGSV,2,2,08,14,,,30,11,,,33,20,,,33,18,,,32*7D
$GPRMC,122448.260,V,,,,,0.00,0.00,100180,,,N*48
$GPGGA,122449.260,,,,,0,0,,,M,,M,,*44
$GPGSA,A,1,,,,,,,,,,,,,,,*1E
$GPGSV,2,1,08,06,,,30,28,,,23,19,,,44,03,,,37*73
$GPGSV,2,2,08,14,,,30,11,,,33,20,,,33,18,,,32*7D
$GPRMC,122449.260,V,,,,,0.00,0.00,100180,,,N*49
$GPGGA,122450.260,,,,,0,0,,,M,,M,,*4C
$GPGSA,A,1,,,,,,,,,,,,,,,*1E
$GPGSV,2,1,08,06,,,30,28,,,22,19,,,44,03,,,37*72
$GPGSV,2,2,08,14,,,30,11,,,33,20,,,33,18,,,32*7D
$GPRMC,122450.260,V,,,,,0.00,0.00,100180,,,N*41
$GPGGA,122451.260,,,,,0,0,,,M,,M,,*4D
$GPGSA,A,1,,,,,,,,,,,,,,,*1E
$GPGSV,2,1,08,06,,,30,28,,,22,19,,,44,03,,,37*72
$GPGSV,2,2,08,14,,,30,11,,,33,20,,,33,18,,,32*7D
$GPRMC,122451.260,V,,,,,0.00,0.00,100180,,,N*40
$GPGGA,122452.260,,,,,0,0,,,M,,M,,*4E
$GPGSA,A,1,,,,,,,,,,,,,,,*1E
$GPGSV,2,1,08,06,,,30,28,,,22,19,,,44,03,,,37*72
$GPGSV,2,2,08,14,,,30,11,,,33,20,,,33,18,,,32*7D
$GPRMC,122452.260,V,,,,,0.00,0.00,100180,,,N*43
$GPGGA,122453.260,,,,,0,0,,,M,,M,,*4F
$GPGSA,A,1,,,,,,,,,,,,,,,*1E
$GPGSV,2,1,08,06,,,30,28,,,22,19,,,44,03,,,37*72
$GPGSV,2,2,08,14,,,30,11,,,33,20,,,33,18,,,32*7D
$GPRMC,122453.260,V,,,,,0.00,0.00,100180,,,N*42
$GPGGA,122454.260,,,,,0,0,,,M,,M,,*48
$GPGSA,A,1,,,,,,,,,,,,,,,*1E
$GPGSV,2,1,08,06,,,30,28,,,21,19,,,44,03,,,37*71
$GPGSV,2,2,08,14,,,30,11,,,33,20,,,33,18,,,32*7D
$GPRMC,122454.260,V,,,,,0.00,0.00,100180,,,N*45
$GPGGA,122455.260,,,,,0,0,,,M,,M,,*49
$GPGSA,A,1,,,,,,,,,,,,,,,*1E
$GPGSV,3,1,09,06,,,30,28,,,20,19,,,44,03,,,37*70
$GPGSV,3,2,09,14,,,30,11,,,33,20,,,33,18,,,32*7D
$GPGSV,3,3,09,32,,,27*74
$GPRMC,122455.260,V,,,,,0.00,0.00,100180,,,N*44
$GPGGA,122456.260,,,,,0,0,,,M,,M,,*4A
$GPGSA,A,1,,,,,,,,,,,,,,,*1E
$GPGSV,3,1,09,06,,,30,28,,,20,19,,,44,03,,,37*70
$GPGSV,3,2,09,14,,,30,11,,,33,20,,,33,18,,,32*7D
$GPGSV,3,3,09,32,,,28*7B
$GPRMC,122456.260,V,,,,,0.00,0.00,291112,,,N*47
$GPGGA,122457.260,,,,,0,0,,,M,,M,,*4B
$GPGSA,A,1,,,,,,,,,,,,,,,*1E
$GPGSV,3,1,09,06,,,30,28,,,19,19,,,44,03,,,37*7A
$GPGSV,3,2,09,14,,,30,11,,,33,20,,,33,18,,,32*7D
$GPGSV,3,3,09,32,,,29*7A
$GPRMC,122457.260,V,,,,,0.00,0.00,291112,,,N*46
$GPGGA,122458.260,,,,,0,0,,,M,,M,,*44
$GPGSA,A,1,,,,,,,,,,,,,,,*1E
$GPGSV,3,1,09,06,,,30,28,,,19,19,,,44,03,,,37*7A
$GPGSV,3,2,09,14,,,30,11,,,33,20,,,33,18,,,32*7D
$GPGSV,3,3,09,32,,,30*72
$GPRMC,122458.260,V,,,,,0.00,0.00,291112,,,N*49
$GPGGA,122459.260,,,,,0,0,,,M,,M,,*45
$GPGSA,A,1,,,,,,,,,,,,,,,*1E
$GPGSV,3,1,09,06,,,30,28,,,18,19,,,44,03,,,37*7B
$GPGSV,3,2,09,14,,,30,11,,,33,20,,,33,18,,,32*7D
$GPGSV,3,3,09,32,,,29*7A
$GPRMC,122459.260,V,,,,,0.00,0.00,291112,,,N*48
$GPGGA,122500.260,,,,,0,0,,,M,,M,,*48
$GPGSA,A,1,,,,,,,,,,,,,,,*1E
$GPGSV,3,1,09,06,,,30,28,,,19,19,,,44,03,,,37*7A
$GPGSV,3,2,09,14,,,30,11,,,33,20,,,33,18,,,32*7D
$GPGSV,3,3,09,32,,,30*72
$GPRMC,122500.260,V,,,,,0.00,0.00,291112,,,N*45
$GPGGA,122501.260,,,,,0,0,,,M,,M,,*49
$GPGSA,A,1,,,,,,,,,,,,,,,*1E
$GPGSV,3,1,09,06,,,30,28,,,19,19,,,44,03,,,37*7A
$GPGSV,3,2,09,14,,,30,11,,,33,20,,,33,18,,,32*7D
$GPGSV,3,3,09,32,,,30*72
$GPRMC,122501.260,V,,,,,0.00,0.00,291112,,,N*44
$GPGGA,122502.094,,,,,0,5,,,M,,M,,*46
$GPGSA,A,1,,,,,,,,,,,,,,,*1E
$GPGSV,3,1,10,06,,,30,28,,,19,19,,,44,03,,,37*72
$GPGSV,3,2,10,14,,,30,11,,,33,20,,,33,18,,,32*75
$GPGSV,3,3,10,32,,,29,22,,,29*79
$GPRMC,122502.094,V,,,,,0.08,0.00,291112,,,N*46
$GPGGA,122503.094,5700.8562,N,00959.1603,E,1,5,1.79,35.2,M,42.5,M,,*61
$GPGSA,A,3,06,19,03,14,11,,,,,,,,2.04,1.79,0.97*0D
$GPGSV,3,1,10,11,65,264,33,19,54,173,44,14,37,100,30,03,26,168,37*7A
$GPGSV,3,2,10,06,15,157,30,28,,,19,20,,,34,18,,,32*44
$GPGSV,3,3,10,32,,,29,22,,,32*73
$GPRMC,122503.094,A,5700.8562,N,00959.1603,E,1.08,345.02,291112,,,A*6F
$GPGGA,122505.000,5700.8567,N,00959.1599,E,1,5,2.67,31.0,M,42.5,M,,*65
$GPGSA,A,3,06,19,03,14,11,,,,,,,,4.73,2.67,3.90*03
$GPGSV,3,1,10,11,65,264,33,19,54,173,44,14,37,100,30,03,26,168,37*7A
$GPGSV,3,2,10,06,15,157,30,28,,,19,20,,,34,18,,,32*44
$GPGSV,3,3,10,32,,,29,22,,,32*73
$GPRMC,122505.000,A,5700.8567,N,00959.1599,E,0.76,331.07,291112,,,A*6F
$GPGGA,122506.000,5700.8565,N,00959.1591,E,1,5,1.79,31.1,M,42.5,M,,*61
$GPGSA,A,3,06,19,03,14,11,,,,,,,,2.03,1.79,0.97*0A
$GPGSV,3,1,10,11,65,264,33,19,54,173,44,14,37,100,31,03,26,168,37*7B
$GPGSV,3,2,10,06,15,157,30,28,,,19,20,,,34,18,,,32*44
$GPGSV,3,3,10,32,,,29,22,,,31*70
$GPRMC,122506.000,A,5700.8565,N,00959.1591,E,0.38,331.07,291112,,,A*6C
$GPGGA,122507.000,5700.8566,N,00959.1585,E,1,5,1.79,30.5,M,42.5,M,,*63
$GPGSA,A,3,06,19,03,14,11,,,,,,,,2.03,1.79,0.97*0A
$GPGSV,3,1,10,11,65,264,33,19,54,173,44,14,37,100,31,03,26,168,37*7B
$GPGSV,3,2,10,06,15,157,30,28,,,19,20,,,34,18,,,32*44
$GPGSV,3,3,10,32,,,28,22,,,32*72
$GPRMC,122507.000,A,5700.8566,N,00959.1585,E,0.45,331.07,291112,,,A*61
$GPGGA,122508.000,5700.8573,N,00959.1577,E,1,5,1.79,29.5,M,42.5,M,,*6D
$GPGSA,A,3,06,19,03,14,11,,,,,,,,2.04,1.79,0.97*0D
$GPGSV,3,1,10,11,65,264,33,19,54,173,44,14,37,100,31,03,26,168,37*7B
$GPGSV,3,2,10,06,15,157,30,28,,,19,20,,,34,18,,,32*44
$GPGSV,3,3,10,32,,,28,22,,,32*72
$GPRMC,122508.000,A,5700.8573,N,00959.1577,E,0.50,331.07,291112,,,A*63
$GPGGA,122509.000,5700.8578,N,00959.1577,E,1,5,1.79,28.9,M,42.5,M,,*6A
$GPGSA,A,3,06,19,03,14,11,,,,,,,,2.03,1.79,0.97*0A
$GPGSV,3,1,10,11,65,264,33,19,54,173,44,14,37,100,31,03,26,168,37*7B
$GPGSV,3,2,10,06,15,157,30,28,,,19,20,,,34,18,,,32*44
$GPGSV,3,3,10,32,,,28,22,,,32*72
$GPRMC,122509.000,A,5700.8578,N,00959.1577,E,0.33,331.07,291112,,,A*6C
$GPGGA,122510.000,5700.8579,N,00959.1571,E,1,5,1.79,28.2,M,42.5,M,,*6E
$GPGSA,A,3,06,19,03,14,11,,,,,,,,2.04,1.79,0.97*0D
$GPGSV,3,1,10,11,65,264,33,19,54,173,44,14,37,100,31,03,26,168,37*7B
$GPGSV,3,2,10,06,15,157,30,28,,,19,20,,,34,18,,,32*44
$GPGSV,3,3,10,32,,,28,22,,,32*72
$GPRMC,122510.000,A,5700.8579,N,00959.1571,E,0.21,331.07,291112,,,A*60
$GPGGA,122511.000,5700.8578,N,00959.1567,E,1,5,1.79,27.9,M,42.5,M,,*6D
$GPGSA,A,3,06,19,03,14,11,,,,,,,,2.04,1.79,0.97*0D
$GPGSV,3,1,10,11,65,264,32,19,54,173,44,14,37,100,31,03,26,168,37*7A
$GPGSV,3,2,10,06,15,157,30,28,,,19,20,,,34,18,,,32*44
$GPGSV,3,3,10,32,,,28,22,,,31*71
$GPRMC,122511.000,A,5700.8578,N,00959.1567,E,0.09,331.07,291112,,,A*6D
$GPGGA,122512.000,5700.8580,N,00959.1566,E,1,5,1.79,27.4,M,42.5,M,,*65
$GPGSA,A,3,06,19,03,14,11,,,,,,,,2.04,1.79,0.97*0D
$GPGSV,3,1,10,11,65,264,32,19,54,173,44,14,37,100,31,03,26,168,37*7A
$GPGSV,3,2,10,06,15,157,30,28,,,19,20,,,34,18,,,32*44
$GPGSV,3,3,10,32,,,28,22,,,31*71
$GPRMC,122512.000,A,5700.8580,N,00959.1566,E,0.04,331.07,291112,,,A*65
$GPGGA,122513.000,5700.8580,N,00959.1568,E,1,5,1.79,27.8,M,42.5,M,,*66
$GPGSA,A,3,06,19,03,14,11,,,,,,,,2.04,1.79,0.97*0D
$GPGSV,3,1,10,11,65,264,31,19,54,173,44,14,37,100,31,03,26,168,37*79
$GPGSV,3,2,10,06,15,157,30,28,,,19,20,,,35,18,,,32*45
$GPGSV,3,3,10,32,,,28,22,,,32*72
$GPRMC,122513.000,A,5700.8580,N,00959.1568,E,0.04,331.07,291112,,,A*6A
$GPGGA,122514.000,5700.8579,N,00959.1567,E,1,5,1.79,27.8,M,42.5,M,,*68
$GPGSA,A,3,06,19,03,14,11,,,,,,,,2.04,1.79,0.97*0D
$GPGSV,3,1,10,11,65,264,31,19,54,173,44,14,37,100,31,03,26,168,37*79
$GPGSV,3,2,10,06,15,157,30,28,,,19,20,,,35,18,,,32*45
$GPGSV,3,3,10,32,,,27,22,,,31*7E
$GPRMC,122514.000,A,5700.8579,N,00959.1567,E,0.02,331.07,291112,,,A*62
$GPGGA,122515.000,5700.8578,N,00959.1565,E,1,5,1.79,27.7,M,42.5,M,,*65
$GPGSA,A,3,06,19,03,14,11,,,,,,,,2.04,1.79,0.97*0D
$GPGSV,3,1,10,11,65,264,31,19,54,173,44,14,37,100,31,03,26,168,37*79
$GPGSV,3,2,10,06,15,157,30,28,,,19,20,,,35,18,,,32*45
$GPGSV,3,3,10,32,,,27,22,,,31*7E
$GPRMC,122515.000,A,5700.8578,N,00959.1565,E,0.04,331.07,291112,,,A*66
$GPGGA,122516.000,5700.8578,N,00959.1562,E,1,5,1.79,27.4,M,42.5,M,,*62
$GPGSA,A,3,06,19,03,14,11,,,,,,,,2.04,1.79,0.97*0D
$GPGSV,3,1,10,11,65,264,31,19,54,173,44,14,37,100,31,03,26,168,37*79
$GPGSV,3,2,10,06,15,157,30,28,,,19,20,,,35,18,,,32*45
$GPGSV,3,3,10,32,,,27,22,,,31*7E
$GPRMC,122516.000,A,5700.8578,N,00959.1562,E,0.02,331.07,291112,,,A*64
$GPGGA,122517.000,5700.8578,N,00959.1560,E,1,5,1.79,27.1,M,42.5,M,,*64
$GPGSA,A,3,06,19,03,14,11,,,,,,,,2.03,1.79,0.97*0A
$GPGSV,3,1,10,11,65,264,31,19,54,173,44,14,37,100,31,03,26,168,37*79
$GPGSV,3,2,10,06,15,157,30,28,,,19,20,,,35,18,,,32*45
$GPGSV,3,3,10,32,,,27,22,,,31*7E
$GPRMC,122517.000,A,5700.8578,N,00959.1560,E,0.03,331.07,291112,,,A*66
$GPGGA,122518.000,5700.8581,N,00959.1556,E,1,5,1.79,26.2,M,42.5,M,,*6A
$GPGSA,A,3,06,19,03,14,11,,,,,,,,2.04,1.79,0.97*0D
$GPGSV,3,1,10,11,65,264,31,19,54,173,44,14,37,100,31,03,26,168,37*79
$GPGSV,3,2,10,06,15,157,30,28,,,20,20,,,35,18,,,32*4F
$GPGSV,3,3,10,32,,,28,22,,,31*71
$GPRMC,122518.000,A,5700.8581,N,00959.1556,E,0.02,331.07,291112,,,A*6B
$GPGGA,122519.000,5700.8581,N,00959.1555,E,1,5,1.79,26.5,M,42.5,M,,*6F
$GPGSA,A,3,06,19,03,14,11,,,,,,,,2.04,1.79,0.97*0D
$GPGSV,3,1,10,11,65,264,30,19,54,173,44,14,37,100,31,03,26,168,37*78
$GPGSV,3,2,10,06,15,157,30,28,,,20,20,,,35,18,,,32*4F
$GPGSV,3,3,10,32,,,28,22,,,31*71
$GPRMC,122519.000,A,5700.8581,N,00959.1555,E,0.04,331.07,291112,,,A*6F
$GPGGA,122520.000,5700.8581,N,00959.1553,E,1,5,1.79,26.5,M,42.5,M,,*63
$GPGSA,A,3,06,19,03,14,11,,,,,,,,2.03,1.79,0.97*0A
$GPGSV,3,1,10,11,65,264,30,19,54,173,44,14,37,100,31,03,26,168,37*78
$GPGSV,3,2,10,06,15,157,30,28,,,20,20,,,35,18,,,32*4F
$GPGSV,3,3,10,32,,,28,22,,,31*71
$GPRMC,122520.000,A,5700.8581,N,00959.1553,E,0.06,331.07,291112,,,A*61
$GPGGA,122521.000,5700.8575,N,00959.1549,E,1,7,1.14,27.4,M,42.5,M,,*6B
$GPGSA,A,3,06,19,03,14,11,20,18,,,,,,1.39,1.14,0.80*06
$GPGSV,3,1,10,11,65,264,30,19,54,173,44,14,37,100,31,03,26,168,37*78
$GPGSV,3,2,10,06,15,157,30,20,08,227,35,18,08,055,32,28,,,20*48
$GPGSV,3,3,10,32,,,28,22,,,32*72
$GPRMC,122521.000,A,5700.8575,N,00959.1549,E,0.02,331.07,291112,,,A*64
$GPGGA,122522.000,5700.8572,N,00959.1544,E,1,7,1.15,27.6,M,42.5,M,,*61
$GPGSA,A,3,06,19,03,14,11,20,18,,,,,,1.76,1.15,1.33*05
$GPGSV,3,1,10,11,65,264,30,19,54,173,44,14,37,100,31,03,26,168,37*78
$GPGSV,3,2,10,06,15,157,30,20,08,227,35,18,08,055,32,28,,,20*48
$GPGSV,3,3,10,32,,,28,22,,,31*71
$GPRMC,122522.000,A,5700.8572,N,00959.1544,E,0.04,331.07,291112,,,A*6B
$GPGGA,122523.000,5700.8572,N,00959.1539,E,1,7,1.14,27.3,M,42.5,M,,*6E
$GPGSA,A,3,06,19,03,14,11,20,18,,,,,,1.39,1.14,0.80*06
$GPGSV,3,1,10,11,65,264,30,19,54,173,44,14,37,100,31,03,26,168,37*78
$GPGSV,3,2,10,06,15,157,30,20,08,227,35,18,08,055,32,28,,,20*48
$GPGSV,3,3,10,32,,,28,22,,,31*71
$GPRMC,122523.000,A,5700.8572,N,00959.1539,E,0.05,331.07,291112,,,A*61
$GPGGA,122524.000,5700.8572,N,00959.1537,E,1,7,1.14,27.0,M,42.5,M,,*64
$GPGSA,A,3,06,19,03,14,11,20,18,,,,,,1.39,1.14,0.80*06
$GPGSV,3,1,10,11,65,264,30,19,54,173,44,14,37,100,31,03,26,168,37*78
$GPGSV,3,2,10,06,15,157,30,20,08,227,36,18,08,055,32,28,,,20*4B
$GPGSV,3,3,10,32,,,28,22,,,31*71
$GPRMC,122524.000,A,5700.8572,N,00959.1537,E,0.01,331.07,291112,,,A*6C
$GPGGA,122525.000,5700.8570,N,00959.1534,E,1,7,1.14,27.1,M,42.5,M,,*65
$GPGSA,A,3,06,19,03,14,11,20,18,,,,,,1.39,1.14,0.80*06
$GPGSV,3,1,10,11,65,264,30,19,54,173,44,14,37,100,31,03,26,168,37*78
$GPGSV,3,2,10,06,15,157,30,20,08,227,36,18,08,055,32,28,,,21*4A
$GPGSV,3,3,10,32,,,28,22,,,31*71
$GPRMC,122525.000,A,5700.8570,N,00959.1534,E,0.00,331.07,291112,,,A*6D
$GPGGA,122526.000,5700.8569,N,00959.1533,E,1,7,1.14,27.2,M,42.5,M,,*6A
$GPGSA,A,3,06,19,03,14,11,20,18,,,,,,1.39,1.14,0.80*06
$GPGSV,3,1,10,11,65,264,29,19,54,173,44,14,37,100,31,03,26,168,37*70
$GPGSV,3,2,10,06,15,157,30,20,08,227,36,18,08,055,32,28,,,22*49
$GPGSV,3,3,10,32,,,28,22,,,30*70
$GPRMC,122526.000,A,5700.8569,N,00959.1533,E,0.07,331.07,291112,,,A*66
$GPGGA,122527.000,5700.8568,N,00959.1531,E,1,8,1.12,27.3,M,42.5,M,,*60
$GPGSA,A,3,06,19,03,14,11,20,18,32,,,,,1.37,1.12,0.80*0F
$GPGSV,3,1,10,11,65,264,29,19,54,173,44,14,37,100,31,32,35,210,28*72
$GPGSV,3,2,10,03,26,168,37,06,15,157,30,20,08,227,36,18,08,055,32*7F
$GPGSV,3,3,10,28,,,23,22,,,30*70
$GPRMC,122527.000,A,5700.8568,N,00959.1531,E,0.01,331.07,291112,,,A*62
$GPGGA,122528.000,5700.8568,N,00959.1529,E,1,8,1.12,27.3,M,42.5,M,,*66
$GPGSA,A,3,06,19,03,14,11,20,18,32,,,,,1.37,1.12,0.80*0F
$GPGSV,3,1,10,11,65,264,29,19,54,173,44,14,37,100,31,32,35,210,28*72
$GPGSV,3,2,10,03,26,168,37,06,15,157,30,20,08,227,36,18,08,055,32*7F
$GPGSV,3,3,10,28,,,23,22,,,31*71
$GPRMC,122528.000,A,5700.8568,N,00959.1529,E,0.02,331.07,291112,,,A*67
$GPGGA,122529.000,5700.8568,N,00959.1528,E,1,8,1.12,27.2,M,42.5,M,,*67
$GPGSA,A,3,06,19,03,14,11,20,18,32,,,,,1.37,1.12,0.80*0F
$GPGSV,3,1,10,11,65,264,29,19,54,173,44,14,37,100,31,32,35,210,28*72
$GPGSV,3,2,10,03,26,168,37,06,15,157,30,20,08,227,36,18,08,055,32*7F
$GPGSV,3,3,10,28,,,23,22,,,31*71
$GPRMC,122529.000,A,5700.8568,N,00959.1528,E,0.03,331.07,291112,,,A*66
$GPGGA,122530.000,5700.8569,N,00959.1527,E,1,8,1.12,27.2,M,42.5,M,,*61
$GPGSA,A,3,06,19,03,14,11,20,18,32,,,,,1.37,1.12,0.80*0F
$GPGSV,3,1,10,11,65,264,29,19,54,173,44,14,37,100,31,32,35,210,29*73
$GPGSV,3,2,10,03,26,168,37,06,15,157,30,20,08,227,36,18,08,055,32*7F
$GPGSV,3,3,10,28,,,23,22,,,31*71
$GPRMC,122530.000,A,5700.8569,N,00959.1527,E,0.02,331.07,291112,,,A*61
$GPGGA,122531.000,5700.8568,N,00959.1526,E,1,8,1.12,27.2,M,42.5,M,,*60
$GPGSA,A,3,06,19,03,14,11,20,18,32,,,,,1.37,1.12,0.80*0F
$GPGSV,3,1,10,11,65,264,29,19,54,173,44,14,37,100,31,32,35,210,29*73
$GPGSV,3,2,10,03,26,168,37,06,15,157,30,20,08,227,36,18,08,055,32*7F
$GPGSV,3,3,10,28,,,23,22,,,32*72
$GPRMC,122531.000,A,5700.8568,N,00959.1526,E,0.04,331.07,291112,,,A*66
$GPGGA,122532.000,5700.8569,N,00959.1525,E,1,8,1.12,27.2,M,42.5,M,,*61
$GPGSA,A,3,06,19,03,14,11,20,18,32,,,,,1.37,1.12,0.80*0F
$GPGSV,3,1,10,11,65,264,29,19,54,173,44,14,37,100,32,32,35,210,29*70
$GPGSV,3,2,10,03,26,168,37,06,15,157,30,20,08,227,36,18,08,055,32*7F
$GPGSV,3,3,10,28,,,23,22,,,32*72
$GPRMC,122532.000,A,5700.8569,N,00959.1525,E,0.02,331.07,291112,,,A*61
$GPGGA,122533.000,5700.8568,N,00959.1523,E,1,9,1.08,27.2,M,42.5,M,,*6D
$GPGSA,A,3,06,19,03,14,11,20,18,32,22,,,,1.34,1.08,0.79*01
$GPGSV,3,1,10,11,65,264,29,19,54,173,44,22,43,068,33,14,37,100,32*76
$GPGSV,3,2,10,32,35,210,29,03,26,168,37,06,15,157,30,20,08,227,36*70
$GPGSV,3,3,10,18,08,055,31,28,,,23*40
$GPRMC,122533.000,A,5700.8568,N,00959.1523,E,0.01,331.07,291112,,,A*64
$GPGGA,122534.000,5700.8567,N,00959.1521,E,1,9,1.08,27.2,M,42.5,M,,*67
$GPGSA,A,3,06,19,03,14,11,20,18,32,22,,,,1.34,1.08,0.79*01
$GPGSV,3,1,10,11,65,264,29,19,54,173,44,22,43,068,33,14,37,100,32*76
$GPGSV,3,2,10,32,35,210,29,03,26,168,37,06,15,157,30,20,08,227,36*70
$GPGSV,3,3,10,18,08,055,31,28,,,23*40
$GPRMC,122534.000,A,5700.8567,N,00959.1521,E,0.02,331.07,291112,,,A*6D
$GPGGA,122535.000,5700.8566,N,00959.1519,E,1,9,1.08,27.2,M,42.5,M,,*6C
$GPGSA,A,3,06,19,03,14,11,20,18,32,22,,,,1.34,1.08,0.79*01
$GPGSV,3,1,10,11,65,264,29,19,54,173,44,22,43,068,33,14,37,100,32*76
$GPGSV,3,2,10,32,35,210,29,03,26,168,37,06,15,157,30,20,08,227,36*70
$GPGSV,3,3,10,18,08,055,31,28,,,23*40
$GPRMC,122535.000,A,5700.8566,N,00959.1519,E,0.02,331.07,291112,,,A*66
$GPGGA,122536.000,5700.8565,N,00959.1519,E,1,9,1.08,27.2,M,42.5,M,,*6C
$GPGSA,A,3,06,19,03,14,11,20,18,32,22,,,,1.34,1.08,0.79*01
$GPGSV,3,1,10,11,65,264,29,19,54,173,44,22,43,068,33,14,37,100,32*76
$GPGSV,3,2,10,32,35,210,29,03,26,168,37,06,15,157,30,20,08,227,36*70
$GPGSV,3,3,10,18,08,055,31,28,,,23*40
$GPRMC,122536.000,A,5700.8565,N,00959.1519,E,0.03,331.07,291112,,,A*67
$GPGGA,122537.000,5700.8565,N,00959.1519,E,1,9,1.08,27.2,M,42.5,M,,*6D
$GPGSA,A,3,06,19,03,14,11,20,18,32,22,,,,1.34,1.08,0.79*01
$GPGSV,3,1,10,11,65,264,29,19,54,173,44,22,43,068,33,14,37,100,32*76
$GPGSV,3,2,10,32,35,210,29,03,26,168,37,06,15,157,31,20,08,227,36*71
$GPGSV,3,3,10,18,08,055,31,28,,,23*40
$GPRMC,122537.000,A,5700.8565,N,00959.1519,E,0.02,331.07,291112,,,A*67
$GPGGA,122538.000,5700.8565,N,00959.1519,E,1,9,1.08,27.2,M,42.5,M,,*62
$GPGSA,A,3,06,19,03,14,11,20,18,32,22,,,,1.34,1.08,0.79*01
$GPGSV,3,1,10,11,65,264,29,19,54,173,44,22,43,068,32,14,37,100,32*77
$GPGSV,3,2,10,32,35,210,29,03,26,168,37,06,15,157,31,20,08,227,36*71
$GPGSV,3,3,10,18,08,055,31,28,,,23*40
$GPRMC,122538.000,A,5700.8565,N,00959.1519,E,0.01,331.07,291112,,,A*6B
$GPGGA,122539.000,5700.8565,N,00959.1519,E,1,9,1.08,27.2,M,42.5,M,,*63
$GPGSA,A,3,06,19,03,14,11,20,18,32,22,,,,1.34,1.08,0.79*01
$GPGSV,3,1,10,11,65,264,29,19,54,173,44,22,43,068,32,14,37,100,32*77
$GPGSV,3,2,10,32,35,210,29,03,26,168,37,06,15,157,31,20,08,227,36*71
$GPGSV,3,3,10,18,08,055,31,28,,,23*40
$GPRMC,122539.000,A,5700.8565,N,00959.1519,E,0.05,331.07,291112,,,A*6E
$GPGGA,122540.000,5700.8565,N,00959.1519,E,1,9,1.08,27.2,M,42.5,M,,*6D
$GPGSA,A,3,06,19,03,14,11,20,18,32,22,,,,1.34,1.08,0.79*01
$GPGSV,3,1,10,11,65,264,29,19,54,173,44,22,43,068,31,14,37,100,32*74
$GPGSV,3,2,10,32,35,210,29,03,26,168,37,06,15,157,31,20,08,227,36*71
$GPGSV,3,3,10,18,08,055,31,28,,,23*40
$GPRMC,122540.000,A,5700.8565,N,00959.1519,E,0.01,331.07,291112,,,A*64
$GPGGA,122541.000,5700.8565,N,00959.1519,E,1,9,1.08,27.2,M,42.5,M,,*6C
$GPGSA,A,3,06,19,03,14,11,20,18,32,22,,,,1.34,1.08,0.79*01
$GPGSV,3,1,10,11,65,264,29,19,54,173,44,22,43,068,31,14,37,100,32*74
$GPGSV,3,2,10,32,35,210,29,03,26,168,37,06,15,157,31,20,08,227,36*71
$GPGSV,3,3,10,18,08,055,32,28,,,23*43
$GPRMC,122541.000,A,5700.8565,N,00959.1519,E,0.01,331.07,291112,,,A*65
$GPGGA,122542.000,5700.8565,N,00959.1519,E,1,9,1.08,27.2,M,42.5,M,,*6F
$GPGSA,A,3,06,19,03,14,11,20,18,32,22,,,,1.34,1.08,0.79*01
$GPGSV,3,1,10,11,65,264,29,19,54,173,44,22,43,068,31,14,37,100,32*74
$GPGSV,3,2,10,32,35,210,29,03,26,168,37,06,15,157,31,20,08,227,36*71
$GPGSV,3,3,10,18,08,055,32,28,,,23*43
$GPRMC,122542.000,A,5700.8565,N,00959.1519,E,0.01,331.07,291112,,,A*66
$GPGGA,122543.000,5700.8565,N,00959.1519,E,1,9,1.08,27.2,M,42.5,M,,*6E
$GPGSA,A,3,06,19,03,14,11,20,18,32,22,,,,1.34,1.08,0.79*01
$GPGSV,3,1,10,11,65,264,30,19,54,173,44,22,43,068,31,14,37,100,32*7C
$GPGSV,3,2,10,32,35,210,29,03,26,168,37,06,15,157,31,20,08,227,36*71
$GPGSV,3,3,10,18,08,055,32,28,,,23*43
$GPRMC,122543.000,A,5700.8565,N,00959.1519,E,0.04,331.07,291112,,,A*62
$GPGGA,122544.000,5700.8565,N,00959.1519,E,1,9,1.08,27.2,M,42.5,M,,*69
$GPGSA,A,3,06,19,03,14,11,20,18,32,22,,,,1.34,1.08,0.79*01
$GPGSV,3,1,10,11,65,264,30,19,54,173,44,22,43,068,31,14,37,100,32*7C
$GPGSV,3,2,10,32,35,210,29,03,26,168,37,06,15,157,31,20,08,227,36*71
$GPGSV,3,3,10,18,08,055,32,28,,,23*43
$GPRMC,122544.000,A,5700.8565,N,00959.1519,E,0.02,331.07,291112,,,A*63
$GPGGA,122545.000,5700.8565,N,00959.1520,E,1,9,1.08,27.2,M,42.5,M,,*62
$GPGSA,A,3,06,19,03,14,11,20,18,32,22,,,,1.34,1.08,0.79*01
$GPGSV,3,1,10,11,65,264,30,19,54,173,44,22,43,068,31,14,37,100,32*7C
$GPGSV,3,2,10,32,35,210,29,03,26,168,37,06,15,157,31,20,08,227,36*71
$GPGSV,3,3,10,18,08,055,32,28,,,22*42
$GPRMC,122545.000,A,5700.8565,N,00959.1520,E,0.02,331.07,291112,,,A*68
$GPGGA,122546.000,5700.8565,N,00959.1520,E,1,9,1.08,27.2,M,42.5,M,,*61
$GPGSA,A,3,06,19,03,14,11,20,18,32,22,,,,1.34,1.08,0.79*01
$GPGSV,3,1,10,11,65,264,30,19,54,173,44,22,43,068,31,14,37,100,32*7C
$GPGSV,3,2,10,32,35,210,29,03,26,168,37,06,14,157,31,20,08,227,36*70
$GPGSV,3,3,10,18,08,055,32,28,,,22*42
$GPRMC,122546.000,A,5700.8565,N,00959.1520,E,0.04,331.07,291112,,,A*6D
$GPGGA,122547.000,5700.8565,N,00959.1520,E,1,9,1.09,27.2,M,42.5,M,,*61
$GPGSA,A,3,06,19,03,14,11,20,18,32,22,,,,1.69,1.09,1.29*0C
$GPGSV,3,1,10,11,65,264,30,19,54,173,44,22,43,068,31,14,37,100,32*7C
$GPGSV,3,2,10,32,35,210,29,03,26,168,37,06,14,157,31,20,08,227,36*70
$GPGSV,3,3,10,18,08,055,32,28,,,22*42
$GPRMC,122547.000,A,5700.8565,N,00959.1520,E,0.01,331.07,291112,,,A*69
$GPGGA,122548.000,5700.8565,N,00959.1520,E,1,9,1.09,27.2,M,42.5,M,,*6E
$GPGSA,A,3,06,19,03,14,11,20,18,32,22,,,,1.69,1.09,1.29*0C
$GPGSV,3,1,10,11,65,264,30,19,54,173,44,22,43,068,30,14,37,100,32*7D
$GPGSV,3,2,10,32,35,210,29,03,26,168,37,06,14,157,31,20,08,227,36*70
$GPGSV,3,3,10,18,08,055,32,28,,,22*42
$GPRMC,122548.000,A,5700.8565,N,00959.1520,E,0.00,331.07,291112,,,A*67
$GPGGA,122549.000,5700.8565,N,00959.1520,E,1,9,1.09,27.2,M,42.5,M,,*6F
$GPGSA,A,3,06,19,03,14,11,20,18,32,22,,,,1.69,1.09,1.29*0C
$GPGSV,3,1,10,11,65,264,30,19,54,173,44,22,43,068,30,14,37,100,32*7D
$GPGSV,3,2,10,32,35,210,29,03,26,168,37,06,14,157,31,20,08,227,36*70
$GPGSV,3,3,10,18,08,055,31,28,,,22*41
$GPRMC,122549.000,A,5700.8565,N,00959.1520,E,0.02,331.07,291112,,,A*64
$GPGGA,122550.000,5700.8565,N,00959.1520,E,1,9,1.09,27.2,M,42.5,M,,*67
$GPGSA,A,3,06,19,03,14,11,20,18,32,22,,,,1.69,1.09,1.29*0C
$GPGSV,3,1,10,11,65,264,30,19,54,173,44,22,43,068,30,14,37,100,32*7D
$GPGSV,3,2,10,32,35,210,28,03,26,168,37,06,14,157,31,20,08,227,36*71
$GPGSV,3,3,10,18,08,055,31,28,,,22*41
$GPRMC,122550.000,A,5700.8565,N,00959.1520,E,0.00,331.07,291112,,,A*6E
$GPGGA,122551.000,5700.8565,N,00959.1520,E,1,9,1.09,27.2,M,42.5,M,,*66
$GPGSA,A,3,06,19,03,14,11,20,18,32,22,,,,1.69,1.09,1.29*0C
$GPGSV,3,1,10,11,65,264,30,19,54,173,44,22,43,068,30,14,37,100,32*7D
$GPGSV,3,2,10,32,35,210,28,03,26,168,37,06,14,157,31,20,08,227,36*71
$GPGSV,3,3,10,18,08,055,31,28,,,22*41
$GPRMC,122551.000,A,5700.8565,N,00959.1520,E,0.02,331.07,291112,,,A*6D
$GPGGA,122552.000,5700.8565,N,00959.1520,E,1,9,1.09,27.2,M,42.5,M,,*65
$GPGSA,A,3,06,19,03,14,11,20,18,32,22,,,,1.69,1.09,1.29*0C
$GPGSV,3,1,10,11,65,264,29,19,54,173,44,22,43,068,30,14,37,100,32*75
$GPGSV,3,2,10,32,35,210,27,03,26,168,37,06,14,157,31,20,08,227,36*7E
$GPGSV,3,3,10,18,08,055,31,28,,,22*41
$GPRMC,122552.000,A,5700.8565,N,00959.1520,E,0.01,331.07,291112,,,A*6D
$GPGGA,122553.000,5700.8565,N,00959.1520,E,1,9,1.09,27.3,M,42.5,M,,*65
$GPGSA,A,3,06,19,03,14,11,20,18,32,22,,,,1.69,1.09,1.29*0C
$GPGSV,3,1,11,11,65,264,29,19,54,173,44,22,43,068,30,14,37,100,32*74
$GPGSV,3,2,11,32,35,210,27,03,26,168,37,06,14,157,31,20,08,227,36*7F
$GPGSV,3,3,11,18,08,055,31,28,,,22,09,,,29*42
$GPRMC,122553.000,A,5700.8565,N,00959.1520,E,0.01,331.07,291112,,,A*6C
$GPGGA,122554.000,5700.8565,N,00959.1520,E,1,9,1.09,27.3,M,42.5,M,,*62
$GPGSA,A,3,06,19,03,14,11,20,18,32,22,,,,1.69,1.09,1.29*0C
$GPGSV,3,1,11,11,65,264,29,19,54,173,44,22,43,068,30,14,37,100,32*74
$GPGSV,3,2,11,32,35,210,27,03,26,168,37,06,14,157,31,20,08,227,36*7F
$GPGSV,3,3,11,18,08,055,31,28,,,21,09,,,29*41
$GPRMC,122554.000,A,5700.8565,N,00959.1520,E,0.01,331.07,291112,,,A*6B
$GPGGA,122555.000,5700.8565,N,00959.1520,E,1,9,1.09,27.3,M,42.5,M,,*63
$GPGSA,A,3,06,19,03,14,11,20,18,32,22,,,,1.69,1.09,1.29*0C
$GPGSV,3,1,11,11,65,264,29,19,54,173,44,22,43,068,30,14,37,100,32*74
$GPGSV,3,2,11,32,35,210,27,03,26,168,37,06,14,157,31,20,08,227,36*7F
$GPGSV,3,3,11,18,08,055,31,28,,,21,09,,,29*41
$GPRMC,122555.000,A,5700.8565,N,00959.1520,E,0.01,331.07,291112,,,A*6A
$GPGGA,122556.000,5700.8565,N,00959.1520,E,1,9,1.09,27.3,M,42.5,M,,*60
$GPGSA,A,3,06,19,03,14,11,20,18,32,22,,,,1.69,1.09,1.29*0C
$GPGSV,3,1,11,11,65,264,29,19,54,173,44,22,43,068,30,14,37,100,31*77
$GPGSV,3,2,11,32,35,210,27,03,26,168,37,06,14,157,31,20,08,227,36*7F
$GPGSV,3,3,11,18,08,055,31,28,,,21,09,,,30*49
$GPRMC,122556.000,A,5700.8565,N,00959.1520,E,0.02,331.07,291112,,,A*6A
$GPGGA,122557.000,5700.8565,N,00959.1520,E,1,9,1.09,27.3,M,42.5,M,,*61
$GPGSA,A,3,06,19,03,14,11,20,18,32,22,,,,1.69,1.09,1.29*0C
$GPGSV,3,1,11,11,65,264,29,19,54,173,44,22,43,068,30,14,37,100,31*77
$GPGSV,3,2,11,32,35,210,26,03,26,168,37,06,14,157,31,20,08,227,36*7E
$GPGSV,3,3,11,18,08,055,31,28,,,21,09,,,30*49
$GPRMC,122557.000,A,5700.8565,N,00959.1520,E,0.01,331.07,291112,,,A*68
$GPGGA,122558.000,5700.8565,N,00959.1520,E,1,9,1.09,27.3,M,42.5,M,,*6E
$GPGSA,A,3,06,19,03,14,11,20,18,32,22,,,,1.69,1.09,1.29*0C
$GPGSV,3,1,11,11,65,264,28,19,54,173,44,22,43,068,30,14,37,100,31*76
$GPGSV,3,2,11,32,35,210,25,03,26,168,37,06,14,157,31,20,08,227,36*7D
$GPGSV,3,3,11,18,08,055,31,28,,,21,09,,,30*49
$GPRMC,122558.000,A,5700.8565,N,00959.1520,E,0.02,331.07,291112,,,A*64
$GPGGA,122559.000,5700.8565,N,00959.1520,E,1,9,1.09,27.3,M,42.5,M,,*6F
$GPGSA,A,3,06,19,03,14,11,20,18,32,22,,,,1.69,1.09,1.29*0C
$GPGSV,3,1,11,11,65,264,28,19,54,173,44,22,43,068,30,14,37,100,31*76
$GPGSV,3,2,11,32,35,210,25,03,26,168,37,06,14,157,31,20,08,227,36*7D
$GPGSV,3,3,11,18,08,055,31,28,,,21,09,,,30*49
$GPRMC,122559.000,A,5700.8565,N,00959.1520,E,0.00,331.07,291112,,,A*67
$GPGGA,122600.000,5700.8565,N,00959.1520,E,1,9,1.09,27.3,M,42.5,M,,*60
$GPGSA,A,3,06,19,03,14,11,20,18,32,22,,,,1.69,1.09,1.29*0C
$GPGSV,3,1,11,11,65,264,28,19,54,173,44,22,43,068,30,14,37,100,31*76
$GPGSV,3,2,11,32,35,210,25,03,26,168,37,06,14,157,31,20,09,227,36*7C
$GPGSV,3,3,11,18,08,055,31,28,,,21,09,,,30*49
$GPRMC,122600.000,A,5700.8565,N,00959.1520,E,0.01,331.07,291112,,,A*69
$GPGGA,122601.000,5700.8565,N,00959.1520,E,1,9,1.09,27.3,M,42.5,M,,*61
$GPGSA,A,3,06,19,03,14,11,20,18,32,22,,,,1.69,1.09,1.29*0C
$GPGSV,3,1,11,11,65,264,28,19,54,173,44,22,43,068,29,14,37,100,31*7E
$GPGSV,3,2,11,32,35,210,25,03,26,168,37,06,14,157,31,20,09,227,36*7C
$GPGSV,3,3,11,18,08,055,31,28,,,21,09,,,30*49
$GPRMC,122601.000,A,5700.8565,N,00959.1520,E,0.00,331.07,291112,,,A*69
$GPGGA,122602.000,5700.8565,N,00959.1520,E,1,9,1.09,27.3,M,42.5,M,,*62
$GPGSA,A,3,06,19,03,14,11,20,18,32,22,,,,1.69,1.09,1.29*0C
$GPGSV,3,1,11,11,65,264,28,19,54,173,44,22,42,068,29,14,37,100,31*7F
$GPGSV,3,2,11,32,35,210,25,03,26,168,37,06,14,157,31,20,09,227,36*7C
$GPGSV,3,3,11,18,08,055,31,28,,,22,09,,,30*4A
$GPRMC,122602.000,A,5700.8565,N,00959.1520,E,0.00,331.07,291112,,,A*6A
$GPGGA,122603.000,5700.8565,N,00959.1520,E,1,9,1.09,27.3,M,42.5,M,,*63
$GPGSA,A,3,06,19,03,14,11,20,18,32,22,,,,1.69,1.09,1.29*0C
$GPGSV,3,1,11,11,65,264,28,19,54,173,44,22,42,068,29,14,37,100,31*7F
$GPGSV,3,2,11,32,35,210,25,03,26,168,37,06,14,157,31,20,09,227,36*7C
$GPGSV,3,3,11,18,08,055,31,28,,,22,09,,,30*4A
$GPRMC,122603.000,A,5700.8565,N,00959.1520,E,0.00,331.07,291112,,,A*6B
$GPGGA,122604.000,5700.8565,N,00959.1520,E,1,9,1.09,27.3,M,42.5,M,,*64
$GPGSA,A,3,06,19,03,14,11,20,18,32,22,,,,1.69,1.09,1.29*0C
$GPGSV,3,1,11,11,65,264,28,19,54,173,44,22,42,068,29,14,37,100,31*7F
$GPGSV,3,2,11,32,35,210,26,03,26,168,37,06,14,157,31,20,09,227,36*7F
$GPGSV,3,3,11,18,08,055,31,28,,,23,09,,,30*4B
$GPRMC,122604.000,A,5700.8565,N,00959.1520,E,0.00,331.07,291112,,,A*6C
$GPGGA,122605.000,5700.8565,N,00959.1520,E,1,9,1.09,27.3,M,42.5,M,,*65
$GPGSA,A,3,06,19,03,14,11,20,18,32,22,,,,1.69,1.09,1.29*0C
$GPGSV,3,1,11,11,65,264,28,19,54,173,44,22,42,068,29,14,37,100,31*7F
$GPGSV,3,2,11,32,35,210,26,03,26,168,37,06,14,157,31,20,09,227,36*7F
$GPGSV,3,3,11,18,08,055,31,28,,,23,09,,,29*43
$GPRMC,122605.000,A,5700.8565,N,00959.1520,E,0.00,331.07,291112,,,A*6D
$GPGGA,122606.000,5700.8565,N,00959.1520,E,1,9,1.09,27.3,M,42.5,M,,*66
$GPGSA,A,3,06,19,03,14,11,20,18,32,22,,,,1.69,1.09,1.29*0C
$GPGSV,3,1,11,11,65,264,28,19,54,173,44,22,42,068,29,14,37,100,31*7F
$GPGSV,3,2,11,32,35,210,26,03,26,168,37,06,14,157,31,20,09,227,35*7C
$GPGSV,3,3,11,18,08,055,31,28,,,23,09,,,29*43
$GPRMC,122606.000,A,5700.8565,N,00959.1520,E,0.01,331.07,291112,,,A*6F
$GPGGA,122607.000,5700.8565,N,00959.1520,E,1,9,1.09,27.3,M,42.5,M,,*67
$GPGSA,A,3,06,19,03,14,11,20,18,32,22,,,,1.69,1.09,1.29*0C
$GPGSV,3,1,11,11,65,264,28,19,54,173,44,22,42,068,29,14,37,100,31*7F
$GPGSV,3,2,11,32,35,210,26,03,26,168,37,06,14,157,31,20,09,227,35*7C
$GPGSV,3,3,11,18,08,055,31,28,,,23,09,,,29*43
$GPRMC,122607.000,A,5700.8565,N,00959.1520,E,0.01,331.07,291112,,,A*6E
$GPGGA,122608.000,5700.8565,N,00959.1520,E,1,9,1.09,27.3,M,42.5,M,,*68
$GPGSA,A,3,06,19,03,14,11,20,18,32,22,,,,1.69,1.09,1.29*0C
$GPGSV,3,1,11,11,65,264,28,19,54,173,44,22,42,068,29,14,37,100,31*7F
$GPGSV,3,2,11,32,35,210,26,03,26,168,37,06,14,157,31,20,09,227,35*7C
$GPGSV,3,3,11,18,08,055,31,28,,,23,09,,,29*43
$GPRMC,122608.000,A,5700.8565,N,00959.1520,E,0.00,331.07,291112,,,A*60
$GPGGA,122609.000,5700.8565,N,00959.1520,E,1,9,1.09,27.3,M,42.5,M,,*69
$GPGSA,A,3,06,19,03,14,11,20,18,32,22,,,,1.69,1.09,1.29*0C
$GPGSV,3,1,11,11,65,264,28,19,54,173,44,22,42,068,29,14,37,100,31*7F
$GPGSV,3,2,11,32,35,210,26,03,26,168,37,06,14,157,31,20,09,227,35*7C
$GPGSV,3,3,11,18,08,055,31,28,,,23,09,,,28*42
$GPRMC,122609.000,A,5700.8565,N,00959.1520,E,0.01,331.07,291112,,,A*60
$GPGGA,122610.000,5700.8565,N,00959.1520,E,1,9,1.09,27.3,M,42.5,M,,*61
$GPGSA,A,3,06,19,03,14,11,20,18,32,22,,,,1.69,1.09,1.29*0C
$GPGSV,3,1,11,11,65,264,28,19,54,173,44,22,42,068,29,14,37,100,31*7F
$GPGSV,3,2,11,32,35,210,26,03,26,168,37,06,14,157,31,20,09,227,35*7C
$GPGSV,3,3,11,18,08,055,30,28,,,24,09,,,28*44
$GPRMC,122610.000,A,5700.8565,N,00959.1520,E,0.00,331.07,291112,,,A*69
$GPGGA,122611.000,5700.8565,N,00959.1519,E,1,9,1.09,27.4,M,42.5,M,,*6D
$GPGSA,A,3,06,19,03,14,11,20,18,32,22,,,,1.69,1.09,1.29*0C
$GPGSV,3,1,11,11,65,264,28,19,54,173,44,22,42,068,29,14,37,100,30*7E
$GPGSV,3,2,11,32,35,210,26,03,26,168,37,06,14,157,31,20,09,227,35*7C
$GPGSV,3,3,11,18,08,055,30,28,,,24,09,,,27*4B
$GPRMC,122611.000,A,5700.8565,N,00959.1519,E,0.00,331.07,291112,,,A*62
$GPGGA,122612.000,5700.8565,N,00959.1520,E,1,9,1.09,27.5,M,42.5,M,,*65
$GPGSA,A,3,06,19,03,14,11,20,18,32,22,,,,1.69,1.09,1.28*0D
$GPGSV,3,1,11,11,65,264,28,19,54,173,44,22,42,068,28,14,37,100,30*7F
$GPGSV,3,2,11,32,36,210,26,03,26,168,37,06,14,157,31,20,09,227,35*7F
$GPGSV,3,3,11,18,08,055,30,28,,,24,09,,,27*4B
$GPRMC,122612.000,A,5700.8565,N,00959.1520,E,0.01,331.07,291112,,,A*6A
$GPGGA,122613.000,5700.8565,N,00959.1521,E,1,9,1.09,27.5,M,42.5,M,,*65
$GPGSA,A,3,06,19,03,14,11,20,18,32,22,,,,1.69,1.09,1.28*0D
$GPGSV,3,1,11,11,65,264,28,19,54,173,44,22,42,068,28,14,37,100,30*7F
$GPGSV,3,2,11,32,36,210,27,03,26,168,37,06,14,157,31,20,09,227,35*7E
$GPGSV,3,3,11,18,08,055,30,28,,,24,09,,,27*4B
$GPRMC,122613.000,A,5700.8565,N,00959.1521,E,0.01,331.07,291112,,,A*6A
$GPGGA,122614.000,5700.8566,N,00959.1520,E,1,9,1.09,27.6,M,42.5,M,,*63
$GPGSA,A,3,06,19,03,14,11,20,18,32,22,,,,1.69,1.09,1.29*0C
$GPGSV,3,1,11,11,65,264,28,19,54,173,44,22,42,068,28,14,37,100,30*7F
$GPGSV,3,2,11,32,36,210,27,03,26,168,37,06,14,157,31,20,09,227,35*7E
$GPGSV,3,3,11,18,08,055,30,28,,,24,09,,,27*4B
$GPRMC,122614.000,A,5700.8566,N,00959.1520,E,0.01,331.07,291112,,,A*6F
$GPGGA,122615.000,5700.8566,N,00959.1520,E,1,9,1.09,27.6,M,42.5,M,,*62
$GPGSA,A,3,06,19,03,14,11,20,18,32,22,,,,1.69,1.09,1.29*0C
$GPGSV,3,1,11,11,65,264,28,19,54,173,44,22,42,068,28,14,37,100,30*7F
$GPGSV,3,2,11,32,36,210,27,03,26,168,37,06,14,157,31,20,09,227,35*7E
$GPGSV,3,3,11,18,08,055,30,28,,,24,09,,,27*4B
$GPRMC,122615.000,A,5700.8566,N,00959.1520,E,0.02,331.07,291112,,,A*6D
$GPGGA,122616.000,5700.8566,N,00959.1520,E,1,9,1.09,27.6,M,42.5,M,,*61
$GPGSA,A,3,06,19,03,14,11,20,18,32,22,,,,1.69,1.09,1.29*0C
$GPGSV,3,1,11,11,65,264,28,19,54,173,44,22,42,068,28,14,37,100,30*7F
$GPGSV,3,2,11,32,36,210,27,03,25,168,37,06,14,157,31,20,09,227,35*7D
$GPGSV,3,3,11,18,08,055,30,28,,,24,09,,,27*4B
$GPRMC,122616.000,A,5700.8566,N,00959.1520,E,0.00,331.07,291112,,,A*6C
$GPGGA,122617.000,5700.8566,N,00959.1520,E,1,9,1.09,27.6,M,42.5,M,,*60
$GPGSA,A,3,06,19,03,14,11,20,18,32,22,,,,1.69,1.09,1.29*0C
$GPGSV,3,1,11,11,65,264,28,19,54,173,44,22,42,068,29,14,37,100,30*7E
$GPGSV,3,2,11,32,36,210,27,03,25,168,37,06,14,157,31,20,09,227,35*7D
$GPGSV,3,3,11,18,08,055,30,28,,,24,09,,,27*4B
$GPRMC,122617.000,A,5700.8566,N,00959.1520,E,0.02,331.07,291112,,,A*6F
$GPGGA,122618.000,5700.8566,N,00959.1520,E,1,9,1.09,27.6,M,42.5,M,,*6F
$GPGSA,A,3,06,19,03,14,11,20,18,32,22,,,,1.69,1.09,1.29*0C
$GPGSV,3,1,11,11,65,264,28,19,54,173,44,22,42,068,29,14,37,100,30*7E
$GPGSV,3,2,11,32,36,210,27,03,25,168,37,06,14,157,31,20,09,227,35*7D
$GPGSV,3,3,11,18,08,055,30,28,,,24,09,,,27*4B
$GPRMC,122618.000,A,5700.8566,N,00959.1520,E,0.02,331.07,291112,,,A*60
$GPGGA,122619.000,5700.8566,N,00959.1520,E,1,9,1.09,27.6,M,42.5,M,,*6E
$GPGSA,A,3,06,19,03,14,11,20,18,32,22,,,,1.69,1.09,1.29*0C
$GPGSV,3,1,11,11,65,264,28,19,54,173,44,22,42,068,29,14,37,100,30*7E
$GPGSV,3,2,11,32,36,210,27,03,25,168,37,06,14,157,31,20,09,227,35*7D
$GPGSV,3,3,11,18,08,055,30,28,,,25,09,,,28*45
$GPRMC,122619.000,A,5700.8566,N,00959.1520,E,0.02,331.07,291112,,,A*61
$GPGGA,122620.000,5700.8566,N,00959.1520,E,1,9,1.09,27.6,M,42.5,M,,*64
$GPGSA,A,3,06,19,03,14,11,20,18,32,22,,,,1.69,1.09,1.28*0D
$GPGSV,3,1,11,11,65,264,28,19,54,173,44,22,42,068,29,14,37,100,30*7E
$GPGSV,3,2,11,32,36,210,27,03,25,168,37,06,14,157,31,20,09,227,35*7D
$GPGSV,3,3,11,18,08,055,30,28,,,25,09,,,29*44
$GPRMC,122620.000,A,5700.8566,N,00959.1520,E,0.01,331.07,291112,,,A*68
$GPGGA,122621.000,5700.8566,N,00959.1520,E,1,9,1.09,27.6,M,42.5,M,,*65
$GPGSA,A,3,06,19,03,14,11,20,18,32,22,,,,1.69,1.09,1.29*0C
$GPGSV,3,1,11,11,65,264,29,19,54,173,44,22,42,068,29,14,37,100,30*7F
$GPGSV,3,2,11,32,36,210,27,03,25,168,37,06,14,157,31,20,09,227,35*7D
$GPGSV,3,3,11,18,08,055,30,28,,,25,09,,,29*44
$GPRMC,122621.000,A,5700.8566,N,00959.1520,E,0.02,331.07,291112,,,A*6A
$GPGGA,122622.000,5700.8566,N,00959.1520,E,1,9,1.09,27.6,M,42.5,M,,*66
$GPGSA,A,3,06,19,03,14,11,20,18,32,22,,,,1.69,1.09,1.28*0D
$GPGSV,3,1,11,11,65,264,29,19,54,173,44,22,42,068,29,14,37,100,30*7F
$GPGSV,3,2,11,32,36,210,27,03,25,168,37,06,14,157,31,20,09,227,35*7D
$GPGSV,3,3,11,18,08,055,30,28,,,25,09,,,29*44
$GPRMC,122622.000,A,5700.8566,N,00959.1520,E,0.02,331.07,291112,,,A*69
$GPGGA,122623.000,5700.8566,N,00959.1520,E,1,9,1.09,27.6,M,42.5,M,,*67
$GPGSA,A,3,06,19,03,14,11,20,18,32,22,,,,1.69,1.09,1.28*0D
$GPGSV,3,1,11,11,65,264,29,19,54,173,44,22,42,068,29,14,37,100,30*7F
$GPGSV,3,2,11,32,36,210,28,03,25,168,37,06,14,157,31,20,09,227,35*72
$GPGSV,3,3,11,18,08,055,30,28,,,25,09,,,29*44
$GPRMC,122623.000,A,5700.8566,N,00959.1520,E,0.02,331.07,291112,,,A*68
$GPGGA,122624.000,5700.8566,N,00959.1520,E,1,9,1.09,27.6,M,42.5,M,,*60
$GPGSA,A,3,06,19,03,14,11,20,18,32,22,,,,1.69,1.09,1.28*0D
$GPGSV,3,1,11,11,65,264,28,19,54,173,44,22,42,068,29,14,37,100,30*7E
$GPGSV,3,2,11,32,36,210,28,03,25,168,37,06,14,157,31,20,09,227,35*72
$GPGSV,3,3,11,18,08,055,30,28,,,25,09,,,29*44
$GPRMC,122624.000,A,5700.8566,N,00959.1520,E,0.02,331.07,291112,,,A*6F
$GPGGA,122625.000,5700.8566,N,00959.1520,E,1,9,1.09,27.6,M,42.5,M,,*61
$GPGSA,A,3,06,19,03,14,11,20,18,32,22,,,,1.69,1.09,1.28*0D
$GPGSV,3,1,11,11,65,264,28,19,54,173,44,22,42,068,29,14,37,100,30*7E
$GPGSV,3,2,11,32,36,210,28,03,25,168,37,06,14,157,31,20,09,227,35*72
$GPGSV,3,3,11,18,08,055,30,28,,,24,09,,,29*45
$GPRMC,122625.000,A,5700.8566,N,00959.1520,E,0.02,331.07,291112,,,A*6E
$GPGGA,122626.000,5700.8566,N,00959.1520,E,1,9,1.09,27.6,M,42.5,M,,*62
$GPGSA,A,3,06,19,03,14,11,20,18,32,22,,,,1.69,1.09,1.28*0D
$GPGSV,3,1,11,11,65,264,28,19,54,173,44,22,42,068,29,14,37,100,30*7E
$GPGSV,3,2,11,32,36,210,28,03,25,168,37,06,14,157,31,20,09,227,35*72
$GPGSV,3,3,11,18,08,055,30,28,,,23,09,,,29*42
$GPRMC,122626.000,A,5700.8566,N,00959.1520,E,0.01,331.07,291112,,,A*6E
$GPGGA,122627.000,5700.8566,N,00959.1520,E,1,10,0.92,27.6,M,42.5,M,,*58
$GPGSA,A,3,06,19,03,14,11,20,18,32,09,22,,,1.50,0.92,1.19*0F
$GPGSV,3,1,11,11,65,264,28,19,54,173,44,22,42,068,29,14,37,100,30*7E
$GPGSV,3,2,11,32,36,210,28,03,25,168,37,06,14,157,31,09,10,018,29*72
$GPGSV,3,3,11,20,09,227,35,18,08,055,30,28,,,22*7B
$GPRMC,122627.000,A,5700.8566,N,00959.1520,E,0.03,331.07,291112,,,A*6D
$GPGGA,122628.000,5700.8566,N,00959.1520,E,1,10,0.92,27.6,M,42.5,M,,*57
$GPGSA,A,3,06,19,03,14,11,20,18,32,09,22,,,1.50,0.92,1.19*0F
$GPGSV,3,1,11,11,65,264,28,19,54,173,44,22,42,068,29,14,37,100,30*7E
$GPGSV,3,2,11,32,36,210,28,03,25,168,37,06,14,157,31,09,10,018,29*72
$GPGSV,3,3,11,20,09,227,35,18,08,055,29,28,,,21*70
$GPRMC,122628.000,A,5700.8566,N,00959.1520,E,0.02,331.07,291112,,,A*63
$GPGGA,122629.000,5700.8566,N,00959.1520,E,1,10,0.92,27.6,M,42.5,M,,*56
$GPGSA,A,3,06,19,03,14,11,20,18,32,09,22,,,1.50,0.92,1.19*0F
$GPGSV,3,1,11,11,65,264,28,19,54,173,44,22,42,068,29,14,37,100,30*7E
$GPGSV,3,2,11,32,36,210,28,03,25,168,37,06,14,157,31,09,10,018,28*73
$GPGSV,3,3,11,20,09,227,35,18,08,055,29,28,,,20*71
$GPRMC,122629.000,A,5700.8566,N,00959.1520,E,0.01,331.07,291112,,,A*61
$GPGGA,122630.000,5700.8566,N,00959.1520,E,1,10,0.92,27.6,M,42.5,M,,*5E
$GPGSA,A,3,06,19,03,14,11,20,18,32,09,22,,,1.50,0.92,1.19*0F
$GPGSV,3,1,11,11,65,264,28,19,54,173,44,22,42,068,29,14,37,100,30*7E
$GPGSV,3,2,11,32,36,210,28,03,25,168,37,06,14,157,31,09,10,018,28*73
$GPGSV,3,3,11,20,09,227,35,18,08,055,29,28,,,19*7B
$GPRMC,122630.000,A,5700.8566,N,00959.1520,E,0.02,331.07,291112,,,A*6A
$GPGGA,122631.000,5700.8566,N,00959.1520,E,1,10,0.92,27.6,M,42.5,M,,*5F
$GPGSA,A,3,06,19,03,14,11,20,18,32,09,22,,,1.50,0.92,1.19*0F
$GPGSV,3,1,11,11,65,264,28,19,54,173,44,22,42,068,29,14,37,100,29*76
$GPGSV,3,2,11,32,36,210,28,03,25,168,37,06,14,157,31,09,10,018,28*73
$GPGSV,3,3,11,20,09,227,35,18,08,055,29,28,,,19*7B
$GPRMC,122631.000,A,5700.8566,N,00959.1520,E,0.00,331.07,291112,,,A*69
$GPGGA,122632.000,5700.8566,N,00959.1520,E,1,10,0.92,27.6,M,42.5,M,,*5C
$GPGSA,A,3,06,19,03,14,11,20,18,32,09,22,,,1.50,0.92,1.19*0F
$GPGSV,3,1,11,11,65,264,28,19,54,173,44,22,42,068,30,14,37,100,29*7E
$GPGSV,3,2,11,32,36,210,28,03,25,168,37,06,14,157,31,09,10,018,28*73
$GPGSV,3,3,11,20,09,227,35,18,08,055,29,28,,,18*7A
$GPRMC,122632.000,A,5700.8566,N,00959.1520,E,0.01,331.07,291112,,,A*6B
$GPGGA,122633.000,5700.8566,N,00959.1520,E,1,10,0.92,27.6,M,42.5,M,,*5D
$GPGSA,A,3,06,19,03,14,11,20,18,32,09,22,,,1.50,0.92,1.19*0F
$GPGSV,3,1,11,11,65,264,28,19,54,173,44,22,42,068,30,14,37,100,29*7E
$GPGSV,3,2,11,32,36,210,29,03,25,168,37,06,14,157,31,09,10,018,27*7D
$GPGSV,3,3,11,20,09,227,35,18,08,055,29,28,,,18*7A
$GPRMC,122633.000,A,5700.8566,N,00959.1520,E,0.03,331.07,291112,,,A*68
$GPGGA,122634.000,5700.8566,N,00959.1520,E,1,10,0.92,27.6,M,42.5,M,,*5A
$GPGSA,A,3,06,19,03,14,11,20,18,32,09,22,,,1.50,0.92,1.19*0F
$GPGSV,3,1,11,11,65,264,28,19,54,173,44,22,42,068,30,14,37,100,29*7E
$GPGSV,3,2,11,32,36,210,29,03,25,168,37,06,14,157,31,09,10,018,27*7D
$GPGSV,3,3,11,20,09,227,35,18,08,055,29,28,,,17*75
$GPRMC,122634.000,A,5700.8566,N,00959.1520,E,0.02,331.07,291112,,,A*6E
$GPGGA,122635.000,5700.8566,N,00959.1520,E,1,10,0.92,27.6,M,42.5,M,,*5B
$GPGSA,A,3,06,19,03,14,11,20,18,32,09,22,,,1.50,0.92,1.19*0F
$GPGSV,3,1,11,11,65,264,28,19,54,173,44,22,42,068,30,14,37,100,29*7E
$GPGSV,3,2,11,32,36,210,29,03,25,168,37,06,14,157,31,09,10,018,27*7D
$GPGSV,3,3,11,20,09,227,35,18,08,055,29,28,,,16*74
$GPRMC,122635.000,A,5700.8566,N,00959.1520,E,0.02,331.07,291112,,,A*6F
$GPGGA,122636.000,5700.8566,N,00959.1520,E,1,10,0.92,27.6,M,42.5,M,,*58
$GPGSA,A,3,06,19,03,14,11,20,18,32,09,22,,,1.50,0.92,1.19*0F
$GPGSV,3,1,11,11,65,264,28,19,54,173,44,22,42,068,30,14,37,100,29*7E
$GPGSV,3,2,11,32,36,210,29,03,25,168,37,06,14,157,31,09,10,018,27*7D
$GPGSV,3,3,11,20,09,227,35,18,08,055,28,28,,,15*76
$GPRMC,122636.000,A,5700.8566,N,00959.1520,E,0.03,331.07,291112,,,A*6D
$GPGGA,122637.000,5700.8566,N,00959.1520,E,1,10,0.92,27.6,M,42.5,M,,*59
$GPGSA,A,3,06,19,03,14,11,20,18,32,09,22,,,1.50,0.92,1.19*0F
$GPGSV,3,1,11,11,65,264,28,19,54,173,44,22,42,068,30,14,37,100,29*7E
$GPGSV,3,2,11,32,36,210,29,03,25,168,37,06,14,157,31,09,10,018,27*7D
$GPGSV,3,3,11,20,09,227,35,18,08,055,28,28,,,14*77
$GPRMC,122637.000,A,5700.8566,N,00959.1520,E,0.03,331.07,291112,,,A*6C
$GPGGA,122638.000,5700.8566,N,00959.1520,E,1,10,0.92,27.6,M,42.5,M,,*56
$GPGSA,A,3,06,19,03,14,11,20,18,32,09,22,,,1.50,0.92,1.19*0F
$GPGSV,3,1,11,11,65,264,28,19,54,173,44,22,42,068,30,14,37,100,29*7E
$GPGSV,3,2,11,32,36,210,29,03,25,168,37,06,14,157,31,09,10,018,27*7D
$GPGSV,3,3,11,20,09,227,35,18,08,055,28,28,,,14*77
$GPRMC,122638.000,A,5700.8566,N,00959.1520,E,0.01,331.07,291112,,,A*61
$GPGGA,122639.000,5700.8566,N,00959.1520,E,1,10,0.92,27.6,M,42.5,M,,*57
$GPGSA,A,3,06,19,03,14,11,20,18,32,09,22,,,1.50,0.92,1.19*0F
$GPGSV,3,1,11,11,65,264,28,19,54,173,44,22,42,068,30,14,37,100,29*7E
$GPGSV,3,2,11,32,36,210,29,03,25,168,37,06,14,157,31,09,10,018,27*7D
$GPGSV,3,3,11,20,09,227,35,18,08,055,28,28,,,14*77
$GPRMC,122639.000,A,5700.8566,N,00959.1520,E,0.02,331.07,291112,,,A*63
$GPGGA,122640.000,5700.8566,N,00959.1520,E,1,10,0.92,27.6,M,42.5,M,,*59
$GPGSA,A,3,06,19,03,14,11,20,18,32,09,22,,,1.50,0.92,1.19*0F
$GPGSV,3,1,11,11,65,264,28,19,54,173,44,22,42,068,30,14,37,100,29*7E
$GPGSV,3,2,11,32,36,210,29,03,25,168,38,06,14,157,31,09,10,018,27*72
$GPGSV,3,3,11,20,09,227,35,18,08,055,28,28,,,14*77
$GPRMC,122640.000,A,5700.8566,N,00959.1520,E,0.02,331.07,291112,,,A*6D
$GPGGA,122641.000,5700.8566,N,00959.1520,E,1,10,0.92,27.6,M,42.5,M,,*58
$GPGSA,A,3,06,19,03,14,11,20,18,32,09,22,,,1.50,0.92,1.19*0F
$GPGSV,3,1,11,11,65,264,28,19,54,173,44,22,42,068,30,14,37,100,30*76
$GPGSV,3,2,11,32,36,210,29,03,25,168,38,06,14,157,31,09,10,018,27*72
$GPGSV,3,3,11,20,09,227,35,18,08,055,28,28,,,14*77
$GPRMC,122641.000,A,5700.8566,N,00959.1520,E,0.02,331.07,291112,,,A*6C
$GPGGA,122642.000,5700.8566,N,00959.1520,E,1,10,0.92,27.6,M,42.5,M,,*5B
$GPGSA,A,3,06,19,03,14,11,20,18,32,09,22,,,1.50,0.92,1.19*0F
$GPGSV,3,1,11,11,65,264,28,19,54,173,44,22,42,068,30,14,37,100,30*76
$GPGSV,3,2,11,32,36,210,29,03,25,168,38,06,14,157,31,09,10,018,27*72
$GPGSV,3,3,11,20,09,227,35,18,08,055,28,28,,,14*77
$GPRMC,122642.000,A,5700.8566,N,00959.1520,E,0.02,331.07,291112,,,A*6F
$GPGGA,122643.000,5700.8566,N,00959.1520,E,1,10,0.92,27.6,M,42.5,M,,*5A
$GPGSA,A,3,06,19,03,14,11,20,18,32,09,22,,,1.50,0.92,1.19*0F
$GPGSV,3,1,11,11,65,264,28,19,54,173,44,22,42,068,30,14,37,100,30*76
$GPGSV,3,2,11,32,36,210,29,03,25,168,38,06,14,157,31,09,10,018,28*7D
$GPGSV,3,3,11,20,09,227,35,18,08,055,28,28,,,14*77
$GPRMC,122643.000,A,5700.8566,N,00959.1520,E,0.02,331.07,291112,,,A*6E
$GPGGA,122644.000,5700.8566,N,00959.1520,E,1,10,0.92,27.6,M,42.5,M,,*5D
$GPGSA,A,3,06,19,03,14,11,20,18,32,09,22,,,1.50,0.92,1.19*0F
$GPGSV,3,1,11,11,65,264,28,19,54,173,44,22,42,068,30,14,37,100,30*76
$GPGSV,3,2,11,32,36,210,29,03,25,168,38,06,14,157,31,09,10,018,28*7D
$GPGSV,3,3,11,20,09,227,35,18,08,055,28,28,,,14*77
$GPRMC,122644.000,A,5700.8566,N,00959.1520,E,0.02,331.07,291112,,,A*69
$GPGGA,122645.000,5700.8566,N,00959.1520,E,1,10,0.92,27.6,M,42.5,M,,*5C
$GPGSA,A,3,06,19,03,14,11,20,18,32,09,22,,,1.50,0.92,1.19*0F
$GPGSV,3,1,11,11,65,264,28,19,54,173,44,22,42,068,30,14,37,100,30*76
$GPGSV,3,2,11,32,36,210,29,03,25,168,38,06,14,157,31,09,10,018,28*7D
$GPGSV,3,3,11,20,09,227,35,18,08,055,28,28,,,14*77
$GPRMC,122645.000,A,5700.8566,N,00959.1520,E,0.02,331.07,291112,,,A*68
$GPGGA,122646.000,5700.8566,N,00959.1520,E,1,10,0.92,27.6,M,42.5,M,,*5F
$GPGSA,A,3,06,19,03,14,11,20,18,32,09,22,,,1.50,0.92,1.19*0F
$GPGSV,3,1,11,11,65,264,28,19,54,173,44,22,42,068,30,14,37,100,30*76
$GPGSV,3,2,11,32,36,210,29,03,25,168,38,06,14,157,31,09,10,018,28*7D
$GPGSV,3,3,11,20,09,227,35,18,08,055,28,28,,,14*77
$GPRMC,122646.000,A,5700.8566,N,00959.1520,E,0.02,331.07,291112,,,A*6B
$GPGGA,122647.000,5700.8566,N,00959.1520,E,1,10,0.92,27.6,M,42.5,M,,*5E
$GPGSA,A,3,06,19,03,14,11,20,18,32,09,22,,,1.50,0.92,1.19*0F
$GPGSV,3,1,11,11,65,264,29,19,54,173,44,22,42,068,30,14,37,100,30*77
$GPGSV,3,2,11,32,36,210,29,03,25,168,38,06,14,157,31,09,10,018,28*7D
$GPGSV,3,3,11,20,09,227,35,18,08,055,28,28,,,15*76
$GPRMC,122647.000,A,5700.8566,N,00959.1520,E,0.01,331.07,291112,,,A*69
$GPGGA,122648.000,5700.8566,N,00959.1520,E,1,10,0.92,27.6,M,42.5,M,,*51
$GPGSA,A,3,06,19,03,14,11,20,18,32,09,22,,,1.50,0.92,1.19*0F
$GPGSV,3,1,11,11,65,264,29,19,54,173,44,22,42,068,30,14,37,100,31*76
$GPGSV,3,2,11,32,36,210,29,03,25,168,38,06,14,157,31,09,10,018,28*7D
$GPGSV,3,3,11,20,09,227,35,18,08,055,28,28,,,15*76
$GPRMC,122648.000,A,5700.8566,N,00959.1520,E,0.00,331.07,291112,,,A*67
$GPGGA,122649.000,5700.8566,N,00959.1520,E,1,10,0.92,27.6,M,42.5,M,,*50
$GPGSA,A,3,06,19,03,14,11,20,18,32,09,22,,,1.50,0.92,1.19*0F
$GPGSV,3,1,11,11,65,264,29,19,54,173,44,22,42,068,30,14,37,100,31*76
$GPGSV,3,2,11,32,36,210,29,03,25,168,38,06,14,157,31,09,10,018,28*7D
$GPGSV,3,3,11,20,09,227,35,18,08,055,28,28,,,16*75
$GPRMC,122649.000,A,5700.8566,N,00959.1520,E,0.02,331.07,291112,,,A*64
$GPGGA,122650.000,5700.8566,N,00959.1520,E,1,10,0.92,27.6,M,42.5,M,,*58
$GPGSA,A,3,06,19,03,14,11,20,18,32,09,22,,,1.50,0.92,1.19*0F
$GPGSV,3,1,11,11,65,264,29,19,54,173,44,22,42,068,30,14,37,100,31*76
$GPGSV,3,2,11,32,36,210,29,03,25,168,38,06,14,157,31,09,10,018,28*7D
$GPGSV,3,3,11,20,09,227,35,18,08,055,28,28,,,16*75
$GPRMC,122650.000,A,5700.8566,N,00959.1520,E,0.03,331.07,291112,,,A*6D
$GPGGA,122651.000,5700.8566,N,00959.1520,E,1,10,0.92,27.6,M,42.5,M,,*59
$GPGSA,A,3,06,19,03,14,11,20,18,32,09,22,,,1.50,0.92,1.19*0F
$GPGSV,3,1,11,11,65,264,29,19,54,173,44,22,42,068,30,14,37,100,31*76
$GPGSV,3,2,11,32,36,210,29,03,25,168,38,06,14,157,31,09,10,018,28*7D
$GPGSV,3,3,11,20,09,227,35,18,08,055,28,28,,,16*75
$GPRMC,122651.000,A,5700.8566,N,00959.1520,E,0.03,331.07,291112,,,A*6C
$GPGGA,122652.000,5700.8566,N,00959.1520,E,1,10,0.92,27.6,M,42.5,M,,*5A
$GPGSA,A,3,06,19,03,14,11,20,18,32,09,22,,,1.50,0.92,1.19*0F
$GPGSV,3,1,11,11,65,264,29,19,54,173,44,22,42,068,30,14,37,100,31*76
$GPGSV,3,2,11,32,36,210,30,03,25,168,38,06,14,157,31,09,10,018,28*75
$GPGSV,3,3,11,20,09,227,35,18,08,055,27,28,,,17*7B
$GPRMC,122652.000,A,5700.8566,N,00959.1520,E,0.10,331.07,291112,,,A*6D
$GPGGA,122653.000,5700.8566,N,00959.1520,E,1,10,0.92,27.6,M,42.5,M,,*5B
$GPGSA,A,3,06,19,03,14,11,20,18,32,09,22,,,1.50,0.92,1.19*0F
$GPGSV,3,1,11,11,65,264,29,19,54,173,44,22,42,068,30,14,37,100,31*76
$GPGSV,3,2,11,32,36,210,30,03,25,168,38,06,14,157,31,09,10,018,28*75
$GPGSV,3,3,11,20,09,227,36,18,08,055,27,28,,,19*76
$GPRMC,122653.000,A,5700.8566,N,00959.1520,E,0.12,331.07,291112,,,A*6E
$GPGGA,122654.000,5700.8566,N,00959.1520,E,1,10,0.92,27.6,M,42.5,M,,*5C
$GPGSA,A,3,06,19,03,14,11,20,18,32,09,22,,,1.50,0.92,1.19*0F
$GPGSV,3,1,11,11,65,264,29,19,54,173,44,22,42,068,30,14,37,100,31*76
$GPGSV,3,2,11,32,36,210,30,03,25,168,38,06,14,157,31,09,10,018,28*75
$GPGSV,3,3,11,20,09,227,36,18,08,055,27,28,,,20*7C
$GPRMC,122654.000,A,5700.8566,N,00959.1520,E,0.10,331.07,291112,,,A*6B
$GPGGA,122655.000,5700.8566,N,00959.1520,E,1,10,0.92,27.6,M,42.5,M,,*5D
$GPGSA,A,3,06,19,03,14,11,20,18,32,09,22,,,1.50,0.92,1.19*0F
$GPGSV,3,1,11,11,65,264,29,19,54,173,44,22,42,068,30,14,37,100,31*76
$GPGSV,3,2,11,32,36,210,30,03,25,168,38,06,14,157,31,09,10,018,28*75
$GPGSV,3,3,11,20,09,227,36,18,08,055,27,28,,,20*7C
$GPRMC,122655.000,A,5700.8566,N,00959.1520,E,0.08,331.07,291112,,,A*63
$GPGGA,122656.000,5700.8566,N,00959.1520,E,1,10,0.92,27.6,M,42.5,M,,*5E
$GPGSA,A,3,06,19,03,14,11,20,18,32,09,22,,,1.50,0.92,1.19*0F
$GPGSV,3,1,11,11,65,264,29,19,54,173,44,22,42,068,30,14,37,100,31*76
$GPGSV,3,2,11,32,36,210,30,03,25,168,38,06,14,157,31,09,10,018,28*75
$GPGSV,3,3,11,20,09,227,36,18,08,055,27,28,,,20*7C
$GPRMC,122656.000,A,5700.8566,N,00959.1520,E,0.07,331.07,291112,,,A*6F
$GPGGA,122657.000,5700.8566,N,00959.1520,E,1,10,0.92,27.6,M,42.5,M,,*5F
$GPGSA,A,3,06,19,03,14,11,20,18,32,09,22,,,1.50,0.92,1.19*0F
$GPGSV,3,1,11,11,66,263,29,19,54,173,44,22,42,068,30,14,37,100,31*72
$GPGSV,3,2,11,32,36,210,30,03,25,168,38,06,14,157,31,09,10,018,28*75
$GPGSV,3,3,11,20,09,227,36,18,08,055,27,28,,,21*7D
$GPRMC,122657.000,A,5700.8566,N,00959.1520,E,0.05,331.07,291112,,,A*6C
$GPGGA,122658.000,5700.8566,N,00959.1520,E,1,10,0.92,27.6,M,42.5,M,,*50
$GPGSA,A,3,06,19,03,14,11,20,18,32,09,22,,,1.50,0.92,1.19*0F
$GPGSV,3,1,11,11,66,263,29,19,54,173,44,22,42,068,30,14,37,100,31*72
$GPGSV,3,2,11,32,36,210,30,03,25,168,38,06,14,157,31,09,10,018,28*75
$GPGSV,3,3,11,20,09,227,36,18,08,055,27,28,,,21*7D
$GPRMC,122658.000,A,5700.8566,N,00959.1520,E,0.02,331.07,291112,,,A*64
$GPGGA,122659.000,5700.8566,N,00959.1520,E,1,10,0.92,27.6,M,42.5,M,,*51
$GPGSA,A,3,06,19,03,14,11,20,18,32,09,22,,,1.50,0.92,1.19*0F
$GPGSV,3,1,11,11,66,263,29,19,54,173,44,22,42,068,30,14,37,100,31*72
$GPGSV,3,2,11,32,36,210,30,03,25,168,38,06,14,157,31,09,10,018,28*75
$GPGSV,3,3,11,20,09,227,36,18,08,055,26,28,,,22*7F
$GPRMC,122659.000,A,5700.8566,N,00959.1520,E,0.04,331.07,291112,,,A*63
$GPGGA,122700.000,5700.8566,N,00959.1520,E,1,10,0.92,27.6,M,42.5,M,,*5C
$GPGSA,A,3,06,19,03,14,11,20,18,32,09,22,,,1.50,0.92,1.19*0F
$GPGSV,3,1,11,11,66,263,29,19,54,173,44,22,42,068,30,14,37,099,31*73
$GPGSV,3,2,11,32,36,210,31,03,25,168,38,06,14,157,31,09,10,018,28*74
$GPGSV,3,3,11,20,09,227,36,18,08,055,26,28,,,23*7E
$GPRMC,122700.000,A,5700.8566,N,00959.1520,E,0.03,331.07,291112,,,A*69
$GPGGA,122701.000,5700.8565,N,00959.1520,E,1,10,0.92,27.6,M,42.5,M,,*5E
$GPGSA,A,3,06,19,03,14,11,20,18,32,09,22,,,1.50,0.92,1.19*0F
$GPGSV,3,1,11,11,66,263,29,19,54,173,44,22,42,068,30,14,37,099,31*73
$GPGSV,3,2,11,32,36,210,31,03,25,168,38,06,14,157,31,09,10,018,28*74
$GPGSV,3,3,11,20,09,227,36,18,08,055,26,28,,,24*79
$GPRMC,122701.000,A,5700.8565,N,00959.1520,E,0.04,331.07,291112,,,A*6C
$GPGGA,122702.000,5700.8565,N,00959.1520,E,1,10,0.92,27.6,M,42.5,M,,*5D
$GPGSA,A,3,06,19,03,14,11,20,18,32,09,22,,,1.50,0.92,1.19*0F
$GPGSV,3,1,11,11,66,263,29,19,54,173,44,22,42,068,30,14,37,099,31*73
$GPGSV,3,2,11,32,36,210,31,03,25,168,38,06,14,157,31,09,10,018,28*74
$GPGSV,3,3,11,20,09,227,36,18,08,055,26,28,,,24*79
$GPRMC,122702.000,A,5700.8565,N,00959.1520,E,0.06,331.07,291112,,,A*6D
$GPGGA,122703.000,5700.8565,N,00959.1520,E,1,10,0.92,27.6,M,42.5,M,,*5C
$GPGSA,A,3,06,19,03,14,11,20,18,32,09,22,,,1.50,0.92,1.19*0F
$GPGSV,3,1,11,11,66,263,29,19,54,173,44,22,42,068,30,14,37,099,31*73
$GPGSV,3,2,11,32,36,210,31,03,25,168,38,06,14,157,31,09,10,018,28*74
$GPGSV,3,3,11,20,09,227,36,18,08,055,26,28,,,24*79
$GPRMC,122703.000,A,5700.8565,N,00959.1520,E,0.05,331.07,291112,,,A*6F
$GPGGA,122704.000,5700.8565,N,00959.1521,E,1,10,0.92,27.6,M,42.5,M,,*5A
$GPGSA,A,3,06,19,03,14,11,20,18,32,09,22,,,1.50,0.92,1.19*0F
$GPGSV,3,1,11,11,66,263,29,19,54,173,44,22,42,068,30,14,37,099,31*73
$GPGSV,3,2,11,32,36,210,31,03,25,168,38,06,14,157,31,09,10,018,28*74
$GPGSV,3,3,11,20,09,227,36,18,08,055,26,28,,,23*7E
$GPRMC,122704.000,A,5700.8565,N,00959.1521,E,0.04,331.07,291112,,,A*68
$GPGGA,122705.000,5700.8565,N,00959.1521,E,1,10,0.92,27.6,M,42.5,M,,*5B
$GPGSA,A,3,06,19,03,14,11,20,18,32,09,22,,,1.50,0.92,1.19*0F
$GPGSV,3,1,11,11,66,263,29,19,53,173,44,22,42,068,30,14,37,099,31*74
$GPGSV,3,2,11,32,36,210,31,03,25,168,38,06,14,157,31,09,10,018,29*75
$GPGSV,3,3,11,20,09,227,36,18,08,055,26,28,,,22*7F
$GPRMC,122705.000,A,5700.8565,N,00959.1521,E,0.07,331.07,291112,,,A*6A
$GPGGA,122706.000,5700.8565,N,00959.1521,E,1,10,0.92,27.6,M,42.5,M,,*58
$GPGSA,A,3,06,19,03,14,11,20,18,32,09,22,,,1.50,0.92,1.19*0F
$GPGSV,3,1,11,11,66,263,29,19,53,173,44,22,42,068,30,14,37,099,31*74
$GPGSV,3,2,11,32,36,210,32,03,25,168,38,06,14,157,31,09,10,018,29*76
$GPGSV,3,3,11,20,09,227,36,18,08,055,26,28,,,22*7F
$GPRMC,122706.000,A,5700.8565,N,00959.1521,E,0.03,331.07,291112,,,A*6D
$GPGGA,122707.000,5700.8565,N,00959.1521,E,1,10,0.92,27.6,M,42.5,M,,*59
$GPGSA,A,3,06,19,03,14,11,20,18,32,09,22,,,1.50,0.92,1.19*0F
$GPGSV,3,1,11,11,66,263,29,19,53,173,44,22,42,068,30,14,37,099,31*74
$GPGSV,3,2,11,32,36,210,32,03,25,168,38,06,14,157,31,09,10,018,29*76
$GPGSV,3,3,11,20,09,227,36,18,08,055,26,28,,,23*7E
$GPRMC,122707.000,A,5700.8565,N,00959.1521,E,0.03,331.07,291112,,,A*6C
$GPGGA,122708.000,5700.8565,N,00959.1521,E,1,10,0.92,27.6,M,42.5,M,,*56
$GPGSA,A,3,06,19,03,14,11,20,18,32,09,22,,,1.50,0.92,1.19*0F
$GPGSV,3,1,11,11,66,263,29,19,53,173,44,22,42,068,30,14,37,099,31*74
$GPGSV,3,2,11,32,36,210,32,03,25,168,38,06,14,157,31,09,10,018,29*76
$GPGSV,3,3,11,20,09,227,36,18,08,055,26,28,,,23*7E
$GPRMC,122708.000,A,5700.8565,N,00959.1521,E,0.03,331.07,291112,,,A*63
$GPGGA,122709.000,5700.8565,N,00959.1521,E,1,10,0.92,27.6,M,42.5,M,,*57
$GPGSA,A,3,06,19,03,14,11,20,18,32,09,22,,,1.50,0.92,1.19*0F
$GPGSV,3,1,11,11,66,263,29,19,53,173,44,22,42,068,30,14,37,099,31*74
$GPGSV,3,2,11,32,36,210,32,03,25,168,38,06,14,157,31,09,10,018,29*76
$GPGSV,3,3,11,20,09,227,36,18,08,055,26,28,,,23*7E
$GPRMC,122709.000,A,5700.8565,N,00959.1521,E,0.00,331.07,291112,,,A*61
$GPGGA,122710.000,5700.8565,N,00959.1521,E,1,10,0.92,27.7,M,42.5,M,,*5E
$GPGSA,A,3,06,19,03,14,11,20,18,32,09,22,,,1.50,0.92,1.19*0F
$GPGSV,3,1,11,11,66,263,29,19,53,173,44,22,42,068,30,14,37,099,31*74
$GPGSV,3,2,11,32,36,210,32,03,25,168,38,06,14,157,31,09,10,018,29*76
$GPGSV,3,3,11,20,09,227,36,18,08,055,26,28,,,23*7E
$GPRMC,122710.000,A,5700.8565,N,00959.1521,E,0.02,331.07,291112,,,A*6B
$GPGGA,122711.000,5700.8565,N,00959.1521,E,1,10,0.92,27.7,M,42.5,M,,*5F
$GPGSA,A,3,06,19,03,14,11,20,18,32,09,22,,,1.50,0.92,1.19*0F
$GPGSV,3,1,11,11,66,263,29,19,53,173,44,22,42,068,30,14,37,099,31*74
$GPGSV,3,2,11,32,36,210,32,03,25,168,38,06,14,157,31,09,10,018,29*76
$GPGSV,3,3,11,20,09,227,36,18,08,055,26,28,,,23*7E
$GPRMC,122711.000,A,5700.8565,N,00959.1521,E,0.02,331.07,291112,,,A*6A
$GPGGA,122712.000,5700.8565,N,00959.1521,E,1,10,0.92,27.7,M,42.5,M,,*5C
$GPGSA,A,3,06,19,03,14,11,20,18,32,09,22,,,1.50,0.92,1.19*0F
$GPGSV,3,1,11,11,66,263,29,19,53,173,44,22,42,068,29,14,37,099,31*7C
$GPGSV,3,2,11,32,36,210,32,03,25,168,38,06,14,157,31,09,10,018,28*77
$GPGSV,3,3,11,20,09,227,36,18,08,055,26,28,,,23*7E
$GPRMC,122712.000,A,5700.8565,N,00959.1521,E,0.01,331.07,291112,,,A*6A
$GPGGA,122713.000,5700.8565,N,00959.1521,E,1,10,0.92,27.7,M,42.5,M,,*5D
$GPGSA,A,3,06,19,03,14,11,20,18,32,09,22,,,1.50,0.92,1.19*0F
$GPGSV,3,1,11,11,66,263,29,19,53,173,44,22,42,068,28,14,37,099,31*7D
$GPGSV,3,2,11,32,36,210,32,03,25,168,38,06,14,157,30,09,10,018,28*76
$GPGSV,3,3,11,20,09,227,36,18,08,055,26,28,,,23*7E
$GPRMC,122713.000,A,5700.8565,N,00959.1521,E,0.04,331.07,291112,,,A*6E
$GPGGA,122714.000,5700.8565,N,00959.1521,E,1,10,0.92,27.7,M,42.5,M,,*5A
$GPGSA,A,3,06,19,03,14,11,20,18,32,09,22,,,1.50,0.92,1.19*0F
$GPGSV,3,1,11,11,66,263,29,19,53,173,44,22,42,068,28,14,37,099,31*7D
$GPGSV,3,2,11,32,36,210,32,03,25,168,38,06,14,157,30,09,10,018,28*76
$GPGSV,3,3,11,20,09,227,36,18,08,055,27,28,,,24*78
$GPRMC,122714.000,A,5700.8565,N,00959.1521,E,0.01,331.07,291112,,,A*6C
$GPGGA,122715.000,5700.8565,N,00959.1521,E,1,10,0.92,27.7,M,42.5,M,,*5B
$GPGSA,A,3,06,19,03,14,11,20,18,32,09,22,,,1.50,0.92,1.19*0F
